{
"type": "FeatureCollection",
"crs": { "type": "name", "properties": { "name": "urn:ogc:def:crs:OGC:1.3:CRS84" } },                                                                      
"features": [
{ "type": "Feature", "properties": { "id":"940GZZDLALL", "name":"All Saints","tfl_intid": 850, "lines": [ { "name": "DLR" } ], "labelX": 30 }, "geometry": { "type": "Point", "coordinates": [ -0.013071299999987, 51.510716 ] } },
{ "type": "Feature", "properties": { "id":"940GZZDLBEC", "name":"Beckton","tfl_intid": 895, "lines": [ { "name": "DLR" } ], "labelX": -30 }, "geometry": { "type": "Point", "coordinates": [ 0.061052699999989, 51.51427850000001 ] } },
{ "type": "Feature", "properties": { "id":"940GZZDLBLA", "name":"Blackwall","tfl_intid": 882, "lines": [ { "name": "DLR" } ], "labelX": 30 }, "geometry": { "type": "Point", "coordinates": [ -0.007226199999986, 51.507945 ] } },
{ "type": "Feature", "properties": { "id":"940GZZDLBOW", "name":"Bow Church","tfl_intid": 851, "lines": [ { "name": "DLR" } ], "labelX": -25, "labelY": -20 }, "geometry": { "type": "Point", "coordinates": [ -0.0209108, 51.5277293 ] } },
{ "type": "Feature", "properties": { "id":"940GZZDLBPK", "name":"Beckton Park","tfl_intid": 891, "lines": [ { "name": "DLR" } ], "labelX": 1, "labelY": -35 }, "geometry": { "type": "Point", "coordinates": [ 0.0549757, 51.508725800000015 ] } },
{ "type": "Feature", "properties": { "id":"940GZZDLCAN", "name":"Canary Wharf (DLR)","tfl_intid": 842, "lines": [ { "name": "DLR" } ], "labelX": -30 }, "geometry": { "type": "Point", "coordinates": [ -0.020897339802011, 51.505171859647056 ] } },
{ "type": "Feature", "properties": { "id":"940GZZLUCGT", "name":"Canning Town", "altid": "940GZZDLCGT", "tfl_intid": 884, "tfl_statid": 43, "night": true, "lines":[ { "name": "Jubilee" }, { "name": "DLR" } ], "labelX": 30 }, "geometry": { "type": "Point", "coordinates": [ 0.0081707, 51.514039699999984 ] } },
{ "type": "Feature", "properties": { "id":"940GZZDLCLA", "name":"Crossharbour","tfl_intid": 854, "lines": [ { "name": "DLR" } ], "labelX": 30 }, "geometry": { "type": "Point", "coordinates": [ -0.0144681, 51.49583640000003 ] } },
{ "type": "Feature", "properties": { "id":"940GZZDLCUS", "name":"Custom House","tfl_intid": 887, "lines": [ { "name": "DLR" }, { "name": "Crossrail", "opened": 2018 } ], "labelX": 1, "labelY": -35 }, "geometry": { "type": "Point", "coordinates": [ 0.0263723, 51.509684300000032 ] } },
{ "type": "Feature", "properties": { "id":"940GZZDLCUT", "name":"Cutty Sark","tfl_intid": 879, "lines": [ { "name": "DLR" } ], "labelX": 30 }, "geometry": { "type": "Point", "coordinates": [ -0.010720800000012, 51.481741399999976 ] } },
{ "type": "Feature", "properties": { "id":"940GZZDLCYP", "name":"Cyprus","tfl_intid": 893, "lines": [ { "name": "DLR" } ], "labelX": 1, "labelY": 35 }, "geometry": { "type": "Point", "coordinates": [ 0.0639712, 51.5084324 ] } },
{ "type": "Feature", "properties": { "id":"940GZZDLDEP", "name":"Deptford Bridge","tfl_intid": 897, "lines": [ { "name": "DLR" } ], "labelX": 30 }, "geometry": { "type": "Point", "coordinates": [ -0.022394, 51.47411 ] } },
{ "type": "Feature", "properties": { "id":"940GZZDLDEV", "name":"Devons Road","tfl_intid": 867, "lines": [ { "name": "DLR" } ], "labelX": 30 }, "geometry": { "type": "Point", "coordinates": [ -0.0175011, 51.5224747 ] } },
{ "type": "Feature", "properties": { "id":"940GZZDLEIN", "name":"East India","tfl_intid": 883, "lines": [ { "name": "DLR" } ], "labelX": 30 }, "geometry": { "type": "Point", "coordinates": [ -0.002259, 51.5093856 ] } },
{ "type": "Feature", "properties": { "id":"940GZZDLELV", "name":"Elverson Road","tfl_intid": 898, "lines": [ { "name": "DLR" } ], "labelX": 30 }, "geometry": { "type": "Point", "coordinates": [ -0.0167864, 51.4690957 ] } },
{ "type": "Feature", "properties": { "id":"940GZZDLGAL", "name":"Gallions Reach","tfl_intid": 894, "lines": [ { "name": "DLR" } ], "labelX": 30 }, "geometry": { "type": "Point", "coordinates": [ 0.071771199999987, 51.5089643 ] } },
{ "type": "Feature", "properties": { "id":"940GZZDLGRE", "name":"Greenwich","tfl_intid": 928, "lines": [ { "name": "DLR" } ], "labelX": 30 }, "geometry": { "type": "Point", "coordinates": [ -0.015487300000022, 51.4780422 ] } },
{ "type": "Feature", "properties": { "id":"940GZZDLHEQ", "name":"Heron Quays","tfl_intid": 855, "lines": [ { "name": "DLR" } ], "labelX": -30 }, "geometry": { "type": "Point", "coordinates": [ -0.0214372, 51.5032616 ] } },
{ "type": "Feature", "properties": { "id":"940GZZDLISL", "name":"Island Gardens","tfl_intid": 856, "lines": [ { "name": "DLR" } ], "labelX": 30 }, "geometry": { "type": "Point", "coordinates": [ -0.010293799999986, 51.4879161 ] } },
{ "type": "Feature", "properties": { "id":"940GZZDLKGV", "name":"King George V","tfl_intid": 523, "lines": [ { "name": "DLR", "opened": 2005 } ], "labelX": 25, "labelY": 20 }, "geometry": { "type": "Point", "coordinates": [ 0.062157941430867, 51.501951630143587 ] } },
{ "type": "Feature", "properties": { "id":"940GZZDLLCA", "name":"London City Airport","tfl_intid": 533, "lines": [ { "name": "DLR", "opened": 2005 } ], "labelX": 30 }, "geometry": { "type": "Point", "coordinates": [ 0.048011800000014, 51.503675599999987 ] } },
{ "type": "Feature", "properties": { "id":"940GZZDLLDP", "name":"Langdon Park","tfl_intid": 853, "lines": [ { "name": "DLR", "opened": 2007 } ], "labelX": 30 }, "geometry": { "type": "Point", "coordinates": [ -0.0141129, 51.51514 ] } },
{ "type": "Feature", "properties": { "id":"940GZZDLLEW", "name":"Lewisham","tfl_intid": 940, "lines": [ { "name": "DLR" } ], "labelX": 30 }, "geometry": { "type": "Point", "coordinates": [ -0.0129099, 51.464714100000023 ] } },
{ "type": "Feature", "properties": { "id":"940GZZDLLIM", "name":"Limehouse","tfl_intid": 862, "lines": [ { "name": "DLR" } ], "labelX": 30 }, "geometry": { "type": "Point", "coordinates": [ -0.0396872, 51.5123722 ] } },
{ "type": "Feature", "properties": { "id":"940GZZDLMUD", "name":"Mudchute","tfl_intid": 857, "lines": [ { "name": "DLR" } ], "labelX": 30 }, "geometry": { "type": "Point", "coordinates": [ -0.0149536, 51.49169770000001 ] } },
{ "type": "Feature", "properties": { "id":"940GZZDLPDK", "name":"Pontoon Dock","tfl_intid": 538, "lines": [ { "name": "DLR", "opened": 2005 } ], "labelX": 25, "labelY": 20 }, "geometry": { "type": "Point", "coordinates": [ 0.0327038, 51.5022144 ] } },
{ "type": "Feature", "properties": { "id":"940GZZDLPOP", "name":"Poplar","tfl_intid": 858, "lines": [ { "name": "DLR" } ], "labelX": 30 }, "geometry": { "type": "Point", "coordinates": [ -0.017478, 51.5078397 ] } },
{ "type": "Feature", "properties": { "id":"940GZZDLPRE", "name":"Prince Regent","tfl_intid": 888, "lines": [ { "name": "DLR" } ], "labelX": 30 }, "geometry": { "type": "Point", "coordinates": [ 0.0336226, 51.509486599999981 ] } },
{ "type": "Feature", "properties": { "id":"940GZZDLPUD", "name":"Pudding Mill Lane","tfl_intid": 859, "lines": [ { "name": "DLR" } ], "labelX": -30 }, "geometry": { "type": "Point", "coordinates": [ -0.013515258567049, 51.533844328290883 ] } },
{ "type": "Feature", "properties": { "id":"940GZZDLRAL", "name":"Royal Albert","tfl_intid": 890, "lines": [ { "name": "DLR" } ], "labelX": 1, "labelY": 35 }, "geometry": { "type": "Point", "coordinates": [ 0.0456575, 51.508343899999979 ] } },
{ "type": "Feature", "properties": { "id":"940GZZDLRVC", "name":"Royal Victoria","tfl_intid": 886, "lines": [ { "name": "DLR" } ], "labelX": 25, "labelY": 20  }, "geometry": { "type": "Point", "coordinates": [ 0.017929837432689, 51.509168377520488 ] } },
{ "type": "Feature", "properties": { "id":"940GZZDLSHA", "name":"Shadwell","altid": "910GSHADWEL", "tfl_intid": 860, "tfl_statid": 225, "lines":[ { "name": "DLR" }, { "name": "London Overground", "opened": 2010 }, { "name": "East London", "closed": 2007 } ], "labelX": 25, "labelY": -20 }, "geometry": { "type": "Point", "coordinates": [ -0.056891488913114, 51.511692575438317 ] } },
{ "type": "Feature", "properties": { "id":"940GZZDLSOQ", "name":"South Quay","tfl_intid": 861, "lines": [ { "name": "DLR" } ], "labelX": 30 }, "geometry": { "type": "Point", "coordinates": [ -0.0161934, 51.5000102 ] } },
{ "type": "Feature", "properties": { "id":"940GZZDLTWG", "name":"Tower Gateway","tfl_intid": 864, "lines": [ { "name": "DLR" } ], "labelX": 25, "labelY": 20 }, "geometry": { "type": "Point", "coordinates": [ -0.0744137, 51.5106233 ] } },
{ "type": "Feature", "properties": { "id":"940GZZDLWFE", "name":"Westferry","tfl_intid": 865, "lines": [ { "name": "DLR" } ], "labelX": -30 }, "geometry": { "type": "Point", "coordinates": [ -0.0267357, 51.5094515 ] } },
{ "type": "Feature", "properties": { "id":"940GZZDLWIQ", "name":"West India Quay","tfl_intid": 866, "lines": [ { "name": "DLR" } ], "labelX": -30 }, "geometry": { "type": "Point", "coordinates": [ -0.0204041, 51.5069041 ] } },
{ "type": "Feature", "properties": { "id":"940GZZDLWLA", "name":"Woolwich Arsenal","tfl_intid": 573, "lines": [ { "name": "DLR", "opened": 2009 } ], "labelX": -25, "labelY": 20 }, "geometry": { "type": "Point", "coordinates": [ 0.0693846, 51.4902972 ] } },
{ "type": "Feature", "properties": { "id":"940GZZDLWSV", "name":"West Silvertown","tfl_intid": 559, "lines": [ { "name": "DLR", "opened": 2005 } ], "labelX": 25, "labelY": -20 }, "geometry": { "type": "Point", "coordinates": [ 0.0221253, 51.502928700000034 ] } },
{ "type": "Feature", "properties": { "id":"940GZZLUACT", "name":"Acton Town","tfl_intid": 500, "tfl_statid": 1, "night": true, "lines":[ { "name": "District" }, { "name": "Piccadilly" } ], "labelX": 30 }, "geometry": { "type": "Point", "coordinates": [ -0.279916699999989, 51.5026436 ] } },
{ "type": "Feature", "properties": { "id":"940GZZLUACY", "name":"Archway","tfl_intid": 508, "tfl_statid": 8, "night": true, "lines":[ { "name": "Northern" } ], "labelX": -30 }, "geometry": { "type": "Point", "coordinates": [ -0.1347453, 51.565371 ] } },
{ "type": "Feature", "properties": { "id":"940GZZLUADE", "name":"Aldgate East","tfl_intid": 503, "tfl_statid": 3, "lines":[ { "name": "District" }, { "name": "Hammersmith & City" } ], "labelX": 30 }, "geometry": { "type": "Point", "coordinates": [ -0.0718766, 51.5151472 ] } },
{ "type": "Feature", "properties": { "id":"940GZZLUAGL", "name":"Angel","tfl_intid": 507, "tfl_statid": 7, "lines":[ { "name": "Northern" } ], "labelX": 1, "labelY": -35 }, "geometry": { "type": "Point", "coordinates": [ -0.10613, 51.5318215 ] } },
{ "type": "Feature", "properties": { "id":"940GZZLUALD", "name":"Aldgate","tfl_intid": 502, "tfl_statid": 2, "lines":[ { "name": "Circle" }, { "name": "Metropolitan" } ], "labelX": 25, "labelY": 20 }, "geometry": { "type": "Point", "coordinates": [ -0.0757156, 51.5140964 ] } },
{ "type": "Feature", "properties": { "id":"940GZZLUALP", "name":"Alperton","tfl_intid": 505, "tfl_statid": 5, "lines":[ { "name": "Piccadilly" } ], "labelX": 30 }, "geometry": { "type": "Point", "coordinates": [ -0.2994548, 51.540554800000038 ] } },
{ "type": "Feature", "properties": { "id":"940GZZLUAMS", "name":"Amersham","tfl_intid": 506, "tfl_statid": 6, "lines":[ { "name": "Metropolitan" } ], "labelX": -30 }, "geometry": { "type": "Point", "coordinates": [ -0.6084687, 51.674206699999985 ] } },
{ "type": "Feature", "properties": { "id":"940GZZLUASG", "name":"Arnos Grove","tfl_intid": 509, "tfl_statid": 9, "night": true, "lines":[ { "name": "Piccadilly" } ], "labelX": 30 }, "geometry": { "type": "Point", "coordinates": [ -0.1332688, 51.6164756 ] } },
{ "type": "Feature", "properties": { "id":"940GZZLUASL", "name":"Arsenal","tfl_intid": 510, "tfl_statid": 10, "night": true, "lines":[ { "name": "Piccadilly" } ], "labelX": 30 }, "geometry": { "type": "Point", "coordinates": [ -0.108099336732297, 51.557824189899065 ] } },
{ "type": "Feature", "properties": { "id":"940GZZLUBBB", "name":"Bromley-by-Bow","tfl_intid": 530, "tfl_statid": 36, "lines":[ { "name": "District" }, { "name": "Hammersmith & City" } ], "labelX": 30 }, "geometry": { "type": "Point", "coordinates": [ -0.0115851, 51.5247366 ] } },
{ "type": "Feature", "properties": { "id":"940GZZLUBBN", "name":"Barbican","tfl_intid": 501, "tfl_statid": 14, "lines":[ { "name": "Hammersmith & City" }, { "name": "Circle" }, { "name": "Metropolitan" } ], "labelX": 30 }, "geometry": { "type": "Point", "coordinates": [ -0.0977924, 51.520215 ] } },
{ "type": "Feature", "properties": { "id":"940GZZLUBDS", "name":"Bounds Green","tfl_intid": 527, "tfl_statid": 31, "night": true, "lines":[ { "name": "Piccadilly" } ], "labelX": 30 }, "geometry": { "type": "Point", "coordinates": [ -0.1241345, 51.6070658 ] } },
{ "type": "Feature", "properties": { "id":"940GZZLUBEC", "name":"Becontree","tfl_intid": 518, "tfl_statid": 21, "lines":[ { "name": "District" } ], "labelX": 30 }, "geometry": { "type": "Point", "coordinates": [ 0.1272689, 51.5403235 ] } },
{ "type": "Feature", "properties": { "id":"940GZZLUBKE", "name":"Barkingside","tfl_intid": 515, "tfl_statid": 16, "night": true, "lines":[ { "name": "Central" } ], "labelX": 30 }, "geometry": { "type": "Point", "coordinates": [ 0.08858, 51.5856497 ] } },
{ "type": "Feature", "properties": { "id":"940GZZLUBKF", "name":"Blackfriars","tfl_intid": 521, "tfl_statid": 25, "lines":[ { "name": "District" }, { "name": "Circle" } ], "labelX": -25, "labelY": -20 }, "geometry": { "type": "Point", "coordinates": [ -0.10314, 51.5117741 ] } },
{ "type": "Feature", "properties": { "id":"940GZZLUBKG", "name":"Barking","altid": "910GBARKING", "tfl_intid": 514, "tfl_statid": 15, "lines":[ { "name": "District" }, { "name": "Hammersmith & City" }, { "name": "London Overground", "opened": 2007 } ], "labelX": 30 }, "geometry": { "type": "Point", "coordinates": [ 0.0812006, 51.5395149 ] } },
{ "type": "Feature", "properties": { "id":"940GZZLUBKH", "name":"Buckhurst Hill","tfl_intid": 531, "tfl_statid": 37, "night": true, "lines":[ { "name": "Central" } ], "labelX": 30 }, "geometry": { "type": "Point", "coordinates": [ 0.0467968, 51.6259458 ] } },
{ "type": "Feature", "properties": { "id":"940GZZLUBLG", "name":"Bethnal Green","tfl_intid": 520, "tfl_statid": 24, "night": true, "lines":[ { "name": "Central" } ], "labelX": 30 }, "geometry": { "type": "Point", "coordinates": [ -0.055488500000017, 51.5274732 ] } },
{ "type": "Feature", "properties": { "id":"940GZZLUBLM", "name":"Balham","tfl_intid": 512, "tfl_statid": 12, "night": true, "lines":[ { "name": "Northern" } ], "labelX": 30 }, "geometry": { "type": "Point", "coordinates": [ -0.1529879, 51.443164399999986 ] } },
{ "type": "Feature", "properties": { "id":"940GZZLUBLR", "name":"Blackhorse Road", "altid": "910GBLCHSRD", "tfl_intid": 522, "tfl_statid": 26, "night": true, "lines":[ { "name": "London Overground", "opened": 2007 }, { "name": "Victoria" } ], "labelX": 25, "labelY": -20 }, "geometry": { "type": "Point", "coordinates": [ -0.041339081938397, 51.586635645852979 ] } },
{ "type": "Feature", "properties": { "id":"940GZZLUBMY", "name":"Bermondsey","tfl_intid": 787, "tfl_statid": 23, "night": true, "lines":[ { "name": "Jubilee" } ], "labelX": 1, "labelY": 35 }, "geometry": { "type": "Point", "coordinates": [ -0.063738199999976, 51.4977297 ] } },
{ "type": "Feature", "properties": { "id":"940GZZLUBND", "name":"Bond Street","tfl_intid": 524, "tfl_statid": 28, "night": true, "night": true, "lines":[ { "name": "Central" }, { "name": "Jubilee" }, { "name": "Crossrail", "opened": 2018 } ], "labelX": 25, "labelY": 20 }, "geometry": { "type": "Point", "coordinates": [ -0.1489861, 51.514325400000011 ] } },
{ "type": "Feature", "properties": { "id":"940GZZLUBOR", "name":"Borough","tfl_intid": 525, "tfl_statid": 29, "lines":[ { "name": "Northern" } ], "labelX": 30 }, "geometry": { "type": "Point", "coordinates": [ -0.09341, 51.5010936 ] } },
{ "type": "Feature", "properties": { "id":"940GZZLUBOS", "name":"Boston Manor","tfl_intid": 526, "tfl_statid": 30, "night": true, "lines":[ { "name": "Piccadilly" } ], "labelX": 30 }, "geometry": { "type": "Point", "coordinates": [ -0.324733400000012, 51.4957483 ] } },
{ "type": "Feature", "properties": { "id":"940GZZLUBSC", "name":"Barons\nCourt","tfl_intid": 516, "tfl_statid": 17, "night": true, "lines":[ { "name": "District" }, { "name": "Piccadilly" } ], "labelX": -1, "labelY": 55 }, "geometry": { "type": "Point", "coordinates": [ -0.2137488, 51.490259899999984 ] } },
{ "type": "Feature", "properties": { "id":"940GZZLUBST", "name":"Baker Street", "tfl_intid": 511, "tfl_statid": 11, "night": true, "lines":[ { "name": "Bakerloo" }, { "name": "Hammersmith & City" }, { "name": "Circle" }, { "name": "Jubilee" }, { "name": "Metropolitan" } ], "labelX": 1, "labelY": 35 }, "geometry": { "type": "Point", "coordinates": [ -0.155512, 51.5225008 ] } },
{ "type": "Feature", "properties": { "id":"940GZZLUBTK", "name":"Burnt Oak","tfl_intid": 532, "tfl_statid": 38, "night": true, "lines":[ { "name": "Northern" } ], "labelX": 30 }, "geometry": { "type": "Point", "coordinates": [ -0.2639522, 51.6028449 ] } },
{ "type": "Feature", "properties": { "id":"940GZZLUBTX", "name":"Brent Cross","tfl_intid": 529, "tfl_statid": 34, "night": true, "lines":[ { "name": "Northern" } ], "labelX": 30 }, "geometry": { "type": "Point", "coordinates": [ -0.21355330000002, 51.5767002 ] } },
{ "type": "Feature", "properties": { "id":"940GZZLUBWR", "name":"Bow Road","tfl_intid": 528, "tfl_statid": 33, "lines":[ { "name": "District" }, { "name": "Hammersmith & City" } ], "labelX": 30 }, "geometry": { "type": "Point", "coordinates": [ -0.024841599999983, 51.526872599999983 ] } },
{ "type": "Feature", "properties": { "id":"940GZZLUBWT", "name":"Bayswater","tfl_intid": 517, "tfl_statid": 18, "lines":[ { "name": "District" }, { "name": "Circle" } ], "labelX": -25, "labelY": -20 }, "geometry": { "type": "Point", "coordinates": [ -0.1878369, 51.512333 ] } },
{ "type": "Feature", "properties": { "id":"940GZZLUBXN", "name":"Brixton","tfl_intid": 778, "tfl_statid": 35, "night": true, "lines":[ { "name": "Victoria" } ], "labelX": 25, "labelY": 20 }, "geometry": { "type": "Point", "coordinates": [ -0.114872018324397, 51.462606259353478 ] } },
{ "type": "Feature", "properties": { "id":"940GZZLUBZP", "name":"Belsize Park","tfl_intid": 519, "tfl_statid": 22, "night": true, "lines":[ { "name": "Northern" } ], "labelX": 30 }, "geometry": { "type": "Point", "coordinates": [ -0.164704200000015, 51.550275100000015 ] } },
{ "type": "Feature", "properties": { "id":"940GZZLUCAL", "name":"Chalfont\n& Latimer","tfl_intid": 539, "tfl_statid": 46, "lines":[ { "name": "Metropolitan" } ], "labelX": -1, "labelY": 50 }, "geometry": { "type": "Point", "coordinates": [ -0.560820499999988, 51.668041899999977 ] } },
{ "type": "Feature", "properties": { "id":"940GZZLUCAR", "name":"Caledonian\nRoad","tfl_intid": 534, "tfl_statid": 39, "night": true, "lines":[ { "name": "Piccadilly" } ], "labelX": 20, "labelY": 20 }, "geometry": { "type": "Point", "coordinates": [ -0.1183672, 51.548373499999975 ] } },
{ "type": "Feature", "properties": { "id":"940GZZLUCFM", "name":"Chalk Farm","tfl_intid": 540, "tfl_statid": 47, "night": true, "lines":[ { "name": "Northern" } ], "labelX": 30 }, "geometry": { "type": "Point", "coordinates": [ -0.15347, 51.54420180000001 ] } },
{ "type": "Feature", "properties": { "id":"940GZZLUCGN", "name":"Covent Garden","tfl_intid": 553, "tfl_statid": 60, "night": true, "lines":[ { "name": "Piccadilly" } ], "labelX": 25, "labelY": -20 }, "geometry": { "type": "Point", "coordinates": [ -0.1241961, 51.51306 ] } },
{ "type": "Feature", "properties": { "id":"940GZZLUCHL", "name":"Chancery Lane","tfl_intid": 541, "tfl_statid": 48, "night": true, "lines":[ { "name": "Central" } ], "labelX": 30 }, "geometry": { "type": "Point", "coordinates": [ -0.112121399999989, 51.5181116 ] } },
{ "type": "Feature", "properties": { "id":"940GZZLUCHX", "name":"Charing Cross","tfl_intid": 718, "tfl_statid": 49, "night": true, "lines":[ { "name": "Bakerloo" }, { "name": "Northern" } ], "labelX": -1, "labelY": 35 }, "geometry": { "type": "Point", "coordinates": [ -0.1273618, 51.5073354 ] } },
{ "type": "Feature", "properties": { "id":"940GZZLUCKS", "name":"Cockfosters","tfl_intid": 550, "tfl_statid": 57, "night": true, "lines":[ { "name": "Piccadilly" } ], "labelX": 25, "labelY": -20 }, "geometry": { "type": "Point", "coordinates": [ -0.149350300000019, 51.651605100000019 ] } },
{ "type": "Feature", "properties": { "id":"940GZZLUCND", "name":"Colindale","tfl_intid": 551, "tfl_statid": 58, "night": true, "lines":[ { "name": "Northern" } ], "labelX": 30 }, "geometry": { "type": "Point", "coordinates": [ -0.249783300000014, 51.5953491 ] } },
{ "type": "Feature", "properties": { "id":"940GZZLUCPC", "name":"Clapham Common","tfl_intid": 547, "tfl_statid": 54, "night": true, "lines":[ { "name": "Northern" } ], "labelX": -30 }, "geometry": { "type": "Point", "coordinates": [ -0.1375885, 51.461986100000011 ] } },
{ "type": "Feature", "properties": { "id":"940GZZLUCPK", "name":"Canons Park","tfl_intid": 537, "tfl_statid": 45, "night": true, "lines":[ { "name": "Jubilee" } ], "labelX": 30 }, "geometry": { "type": "Point", "coordinates": [ -0.2947443, 51.6077565 ] } },
{ "type": "Feature", "properties": { "id":"940GZZLUCPN", "name":"Clapham North","tfl_intid": 548, "tfl_statid": 55, "night": true, "lines":[ { "name": "Northern" } ], "labelX": 30 }, "geometry": { "type": "Point", "coordinates": [ -0.1298984, 51.4651178 ] } },
{ "type": "Feature", "properties": { "id":"940GZZLUCPS", "name":"Clapham South","tfl_intid": 549, "tfl_statid": 56, "night": true, "lines":[ { "name": "Northern" } ], "labelX": 30 }, "geometry": { "type": "Point", "coordinates": [ -0.147584299999988, 51.45276290000001 ] } },
{ "type": "Feature", "properties": { "id":"940GZZLUCSD", "name":"Colliers Wood","tfl_intid": 552, "tfl_statid": 59, "night": true, "lines":[ { "name": "Northern" } ], "labelX": 30 }, "geometry": { "type": "Point", "coordinates": [ -0.178090500000015, 51.418115099999987 ] } },
{ "type": "Feature", "properties": { "id":"940GZZLUCSM", "name":"Chesham","tfl_intid": 543, "tfl_statid": 50, "lines":[ { "name": "Metropolitan" } ], "labelX": 30 }, "geometry": { "type": "Point", "coordinates": [ -0.61093, 51.705389599999954 ] } },
{ "type": "Feature", "properties": { "id":"940GZZLUCST", "name":"Cannon Street","tfl_intid": 536, "tfl_statid": 44, "lines":[ { "name": "District" }, { "name": "Circle" } ], "labelX": -1, "labelY": 35 }, "geometry": { "type": "Point", "coordinates": [ -0.0903232, 51.5113913 ] } },
{ "type": "Feature", "properties": { "id":"940GZZLUCTN", "name":"Camden Town","tfl_intid": 535, "tfl_statid": 40, "night": true, "lines":[ { "name": "Northern" } ], "labelX": 30 }, "geometry": { "type": "Point", "coordinates": [ -0.142556600000018, 51.538940400000023 ] } },
{ "type": "Feature", "properties": { "id":"940GZZLUCWL", "name":"Chigwell","tfl_intid": 544, "tfl_statid": 51, "lines":[ { "name": "Central" } ], "labelX": 30 }, "geometry": { "type": "Point", "coordinates": [ 0.0747482, 51.6178265 ] } },
{ "type": "Feature", "properties": { "id":"940GZZLUCWP", "name":"Chiswick\nPark","tfl_intid": 545, "tfl_statid": 52, "lines":[ { "name": "District" } ], "labelX": 1, "labelY": 55 }, "geometry": { "type": "Point", "coordinates": [ -0.2681215, 51.494579400000021 ] } },
{ "type": "Feature", "properties": { "id":"940GZZLUCWR", "name":"Canada Water", "altid": "910GCNDAW", "tfl_intid": 788, "tfl_statid": 41, "night": true, "lines":[ { "name": "Jubilee" }, { "name": "London Overground", "opened": 2010 }, { "name": "East London", "closed": 2007 } ], "labelX": 30 }, "geometry": { "type": "Point", "coordinates": [ -0.050208069887171, 51.49800230648885 ] } },
{ "type": "Feature", "properties": { "id":"940GZZLUCXY", "name":"Croxley","tfl_intid": 554, "tfl_statid": 62, "lines":[ { "name": "Metropolitan" } ], "labelX": -25, "labelY": -20 }, "geometry": { "type": "Point", "coordinates": [ -0.441666900000013, 51.647149199999973 ] } },
{ "type": "Feature", "properties": { "id":"940GZZLUCYD", "name":"Chorleywood","tfl_intid": 546, "tfl_statid": 53, "lines":[ { "name": "Metropolitan" } ], "labelX": 30 }, "geometry": { "type": "Point", "coordinates": [ -0.518355800000012, 51.6541809 ] } },
{ "type": "Feature", "properties": { "id":"940GZZLUCYF", "name":"Canary Wharf","tfl_intid": 852, "tfl_statid": 42, "night": true, "lines":[ { "name": "Jubilee" } ], "labelX": 30 }, "geometry": { "type": "Point", "coordinates": [ -0.018611988776129, 51.503540630260979 ] } },
{ "type": "Feature", "properties": { "id":"940GZZLUDBN", "name":"Debden","tfl_intid": 557, "tfl_statid": 68, "lines":[ { "name": "Central" } ], "labelX": 30 }, "geometry": { "type": "Point", "coordinates": [ 0.083573299999985, 51.645292900000015 ] } },
{ "type": "Feature", "properties": { "id":"940GZZLUDGE", "name":"Dagenham East","tfl_intid": 555, "tfl_statid": 66, "lines":[ { "name": "District" } ], "labelX": 30 }, "geometry": { "type": "Point", "coordinates": [ 0.165641599999989, 51.54416 ] } },
{ "type": "Feature", "properties": { "id":"940GZZLUDGY", "name":"Dagenham Heathway","tfl_intid": 556, "tfl_statid": 67, "lines":[ { "name": "District" } ], "labelX": 30 }, "geometry": { "type": "Point", "coordinates": [ 0.1476999, 51.5416722 ] } },
{ "type": "Feature", "properties": { "id":"940GZZLUDOH", "name":"Dollis Hill","tfl_intid": 558, "tfl_statid": 71, "night": true, "lines":[ { "name": "Jubilee" } ], "labelX": 25, "labelY": -20 }, "geometry": { "type": "Point", "coordinates": [ -0.239229099999975, 51.552079699999972 ] } },
{ "type": "Feature", "properties": { "id":"940GZZLUEAC", "name":"Elephant & Castle","tfl_intid": 570, "tfl_statid": 84, "lines":[ { "name": "Bakerloo" }, { "name": "Northern" } ], "labelX": 30 }, "geometry": { "type": "Point", "coordinates": [ -0.100545, 51.495383300000022 ] } },
{ "type": "Feature", "properties": { "id":"940GZZLUEAE", "name":"Eastcote","tfl_intid": 564, "tfl_statid": 80, "lines":[ { "name": "Metropolitan" }, { "name": "Piccadily" } ], "labelX": -25, "labelY": -20 }, "geometry": { "type": "Point", "coordinates": [ -0.397075, 51.5766078 ] } },
{ "type": "Feature", "properties": { "id":"940GZZLUEAN", "name":"East Acton","tfl_intid": 563, "tfl_statid": 75, "night": true, "lines":[ { "name": "Central" } ], "labelX": 30 }, "geometry": { "type": "Point", "coordinates": [ -0.2475722, 51.516869199999981 ] } },
{ "type": "Feature", "properties": { "id":"940GZZLUEBY", "name":"Ealing\nBroadway","tfl_intid": 560, "tfl_statid": 72, "night": true, "lines":[ { "name": "Central" }, { "name": "District" }, { "name": "Crossrail", "opened": 2018 } ], "labelX": -1, "labelY": -50 }, "geometry": { "type": "Point", "coordinates": [ -0.3015434, 51.514785 ] } },
{ "type": "Feature", "properties": { "id":"940GZZLUECM", "name":"Ealing Common","tfl_intid": 561, "tfl_statid": 73, "lines":[ { "name": "District" }, { "name": "Piccadilly" } ], "labelX": 30 }, "geometry": { "type": "Point", "coordinates": [ -0.2881812, 51.509906699999988 ] } },
{ "type": "Feature", "properties": { "id":"940GZZLUECT", "name":"Earl's Court","tfl_intid": 562, "tfl_statid": 74, "night": true, "lines":[ { "name": "District" }, { "name": "Piccadilly" } ], "labelX": 30 }, "geometry": { "type": "Point", "coordinates": [ -0.1941681, 51.4914817 ] } },
{ "type": "Feature", "properties": { "id":"940GZZLUEFY", "name":"East Finchley","tfl_intid": 565, "tfl_statid": 76, "night": true, "lines":[ { "name": "Northern" } ], "labelX": 30 }, "geometry": { "type": "Point", "coordinates": [ -0.1652186, 51.587566299999985 ] } },
{ "type": "Feature", "properties": { "id":"940GZZLUEGW", "name":"Edgware","tfl_intid": 568, "tfl_statid": 81, "night": true, "lines":[ { "name": "Northern" } ], "labelX": 30 }, "geometry": { "type": "Point", "coordinates": [ -0.2755037, 51.613989300000014 ] } },
{ "type": "Feature", "properties": { "id":"940GZZLUEHM", "name":"East Ham","tfl_intid": 566, "tfl_statid": 77, "lines":[ { "name": "District" }, { "name": "Hammersmith & City" } ], "labelX": 30 }, "geometry": { "type": "Point", "coordinates": [ 0.052011400000011, 51.539242899999984 ] } },
{ "type": "Feature", "properties": { "id":"940GZZLUEMB", "name":"Embankment","tfl_intid": 542, "tfl_statid": 87, "night": true, "lines":[ { "name": "Bakerloo" }, { "name": "District" }, { "name": "Circle" }, { "name": "Northern" } ], "labelX": 25, "labelY": 20 }, "geometry": { "type": "Point", "coordinates": [ -0.122576599999976, 51.507014 ] } },
{ "type": "Feature", "properties": { "id":"940GZZLUEPG", "name":"Epping","tfl_intid": 572, "tfl_statid": 88, "lines":[ { "name": "Central" } ], "labelX": 30 }, "geometry": { "type": "Point", "coordinates": [ 0.114527900000019, 51.6941769 ] } },
{ "type": "Feature", "properties": { "id":"940GZZLUEPK", "name":"Elm Park","tfl_intid": 571, "tfl_statid": 85, "lines":[ { "name": "District" } ], "labelX": -30 }, "geometry": { "type": "Point", "coordinates": [ 0.1974636, 51.549642699999971 ] } },
{ "type": "Feature", "properties": { "id":"940GZZLUEPY", "name":"East Putney","tfl_intid": 567, "tfl_statid": 79, "lines":[ { "name": "District" } ], "labelX": -30 }, "geometry": { "type": "Point", "coordinates": [ -0.2110618, 51.4590694 ] } },
{ "type": "Feature", "properties": { "id":"940GZZLUERB", "name":"Edgware Road (Bakerloo)","tfl_intid": 774, "tfl_statid": 83, "lines":[ { "name": "Bakerloo" } ], "labelX": -30 }, "geometry": { "type": "Point", "coordinates": [ -0.1703391, 51.520482800000025 ] } },
{ "type": "Feature", "properties": { "id":"940GZZLUERC", "name":"Edgware Road","tfl_intid": 569, "tfl_statid": 82, "lines":[ { "name": "District" }, { "name": "Hammersmith & City" }, { "name": "Circle" } ], "labelX": 25, "labelY": 20 }, "geometry": { "type": "Point", "coordinates": [ -0.1680878, 51.5197315 ] } },
{ "type": "Feature", "properties": { "id":"940GZZLUESQ", "name":"Euston Square","tfl_intid": 575, "tfl_statid": 91, "lines":[ { "name": "Hammersmith & City" }, { "name": "Circle" }, { "name": "Metropolitan" } ], "labelX": 30 }, "geometry": { "type": "Point", "coordinates": [ -0.1355339, 51.525684 ] } },
{ "type": "Feature", "properties": { "id":"940GZZLUEUS", "name":"Euston","altid": "910GEUSTON", "tfl_intid": 574, "tfl_statid": 90, "night": true, "lines":[ { "name": "Northern" }, { "name": "London Overground", "opened": 2007 }, { "name": "Victoria" } ], "labelX": 30 }, "geometry": { "type": "Point", "coordinates": [ -0.134285645550836, 51.528432382320794 ] } },
{ "type": "Feature", "properties": { "id":"940GZZLUFBY", "name":"Fulham Broadway","tfl_intid": 581, "tfl_statid": 97, "lines":[ { "name": "District" } ], "labelX": -30 }, "geometry": { "type": "Point", "coordinates": [ -0.1952809, 51.480184199999975 ] } },
{ "type": "Feature", "properties": { "id":"940GZZLUFCN", "name":"Farringdon","tfl_intid": 577, "tfl_statid": 93, "lines":[ { "name": "Hammersmith & City" }, { "name": "Circle" }, { "name": "Metropolitan" }, { "name": "Crossrail", "opened": 2018 } ], "labelX": 1, "labelY": -35 }, "geometry": { "type": "Point", "coordinates": [ -0.1046657, 51.520207 ] } },
{ "type": "Feature", "properties": { "id":"940GZZLUFLP", "name":"Fairlop","tfl_intid": 576, "tfl_statid": 92, "night": true, "lines":[ { "name": "Central" } ], "labelX": 30 }, "geometry": { "type": "Point", "coordinates": [ 0.0911132, 51.595949200000035 ] } },
{ "type": "Feature", "properties": { "id":"940GZZLUFPK", "name":"Finsbury\nPark","tfl_intid": 580, "tfl_statid": 96, "night": true, "lines":[ { "name": "Piccadilly" }, { "name": "Victoria" } ], "labelX": 30 }, "geometry": { "type": "Point", "coordinates": [ -0.106337580078911, 51.564638580947374 ] } },
{ "type": "Feature", "properties": { "id":"940GZZLUFYC", "name":"Finchley Central","tfl_intid": 578, "tfl_statid": 94, "night": true, "lines":[ { "name": "Northern" } ], "labelX": 30 }, "geometry": { "type": "Point", "coordinates": [ -0.191944099999976, 51.600683199999978 ] } },
{ "type": "Feature", "properties": { "id":"940GZZLUFYR", "name":"Finchley Road","tfl_intid": 579, "tfl_statid": 95, "night": true, "lines":[ { "name": "Jubilee" }, { "name": "Metropolitan" } ], "labelX": 30 }, "geometry": { "type": "Point", "coordinates": [ -0.180883800000012, 51.5473774 ] } },
{ "type": "Feature", "properties": { "id":"940GZZLUGBY", "name":"Gunnersbury","altid": "910GGNRSBRY", "tfl_intid": 591, "tfl_statid": 109, "lines":[ { "name": "District" }, { "name": "London Overground", "opened": 2007 } ], "labelX": -30 }, "geometry": { "type": "Point", "coordinates": [ -0.275379799999987, 51.4916143 ] } },
{ "type": "Feature", "properties": { "id":"940GZZLUGDG", "name":"Goodge Street","tfl_intid": 586, "tfl_statid": 103, "night": true, "lines":[ { "name": "Northern" } ], "labelX": 30 }, "geometry": { "type": "Point", "coordinates": [ -0.1343582, 51.520515 ] } },
{ "type": "Feature", "properties": { "id":"940GZZLUGFD", "name":"Greenford","tfl_intid": 589, "tfl_statid": 107, "lines":[ { "name": "Central" } ], "labelX": -25, "labelY": 20  }, "geometry": { "type": "Point", "coordinates": [ -0.3448163, 51.542187700000014 ] } },
{ "type": "Feature", "properties": { "id":"940GZZLUGGH", "name":"Grange Hill","tfl_intid": 587, "tfl_statid": 104, "lines":[ { "name": "Central" } ], "labelX": 30 }, "geometry": { "type": "Point", "coordinates": [ 0.0925161, 51.613121 ] } },
{ "type": "Feature", "properties": { "id":"940GZZLUGGN", "name":"Golders Green","tfl_intid": 584, "tfl_statid": 101, "night": true, "lines":[ { "name": "Northern" } ], "labelX": 25, "labelY": -20 }, "geometry": { "type": "Point", "coordinates": [ -0.194086200000018, 51.5723973 ] } },
{ "type": "Feature", "properties": { "id":"940GZZLUGHK", "name":"Goldhawk\nRoad","tfl_intid": 585, "tfl_statid": 102, "lines":[ { "name": "Circle", "opened": 2009 }, { "name": "Hammersmith & City" } ], "labelX": -30 }, "geometry": { "type": "Point", "coordinates": [ -0.226674, 51.5019467 ] } },
{ "type": "Feature", "properties": { "id":"940GZZLUGPK", "name":"Green Park","tfl_intid": 590, "tfl_statid": 106, "night": true, "lines":[ { "name": "Jubilee" }, { "name": "Piccadilly" }, { "name": "Victoria" } ], "labelX": -30 }, "geometry": { "type": "Point", "coordinates": [ -0.143118607836931, 51.506557427397397 ] } },
{ "type": "Feature", "properties": { "id":"940GZZLUGPS", "name":"Great Portland Street","tfl_intid": 588, "tfl_statid": 105, "lines":[ { "name": "Hammersmith & City" }, { "name": "Circle" }, { "name": "Metropolitan" } ], "labelX": -30 }, "geometry": { "type": "Point", "coordinates": [ -0.143920900000012, 51.523836699999983 ] } },
{ "type": "Feature", "properties": { "id":"940GZZLUGTH", "name":"Gants Hill","tfl_intid": 582, "tfl_statid": 99, "night": true, "lines":[ { "name": "Central" } ], "labelX": 30 }, "geometry": { "type": "Point", "coordinates": [ 0.0663506, 51.576609 ] } },
{ "type": "Feature", "properties": { "id":"940GZZLUGTR", "name":"Gloucester Road","tfl_intid": 583, "tfl_statid": 100, "night": true, "lines":[ { "name": "District" }, { "name": "Circle" }, { "name": "Piccadilly" } ], "labelX": 1, "labelY": -35 }, "geometry": { "type": "Point", "coordinates": [ -0.1834718, 51.494438374408901 ] } },
{ "type": "Feature", "properties": { "id":"940GZZLUHAI", "name":"Highbury &\nIslington","altid": "910GHGHI", "tfl_intid": 603, "tfl_statid": 124, "night": true, "lines":[ { "name": "London Overground", "opened": 2007 }, { "name": "Victoria" } ], "labelX": 30, "labelY": 20 }, "geometry": { "type": "Point", "coordinates": [ -0.103525347313984, 51.546266739306738 ] } },
{ "type": "Feature", "properties": { "id":"940GZZLUHAW", "name":"Harrow & Wealdstone", "altid": "910GHROWDC", "tfl_intid": 597, "tfl_statid": 115, "lines":[ { "name": "Bakerloo" }, { "name": "London Overground", "opened": 2007 } ], "labelX": 30 }, "geometry": { "type": "Point", "coordinates": [ -0.3353988, 51.5923213 ] } },
{ "type": "Feature", "properties": { "id":"940GZZLUHBN", "name":"Holborn","tfl_intid": 607, "tfl_statid": 127, "night": true, "lines":[ { "name": "Central" }, { "name": "Piccadilly" } ], "labelX": 30 }, "geometry": { "type": "Point", "coordinates": [ -0.120177129592412, 51.517615038307298 ] } },
{ "type": "Feature", "properties": { "id":"940GZZLUHBT", "name":"High Barnet","tfl_intid": 602, "tfl_statid": 122, "night": true, "lines":[ { "name": "Northern" } ], "labelX": 30 }, "geometry": { "type": "Point", "coordinates": [ -0.194815900000012, 51.650932400000023 ] } },
{ "type": "Feature", "properties": { "id":"940GZZLUHCH", "name":"Hornchurch","tfl_intid": 610, "tfl_statid": 130, "lines":[ { "name": "District" } ], "labelX": -30 }, "geometry": { "type": "Point", "coordinates": [ 0.2185416, 51.5540051 ] } },
{ "type": "Feature", "properties": { "id":"940GZZLUHCL", "name":"Hendon Central","tfl_intid": 601, "tfl_statid": 120, "night": true, "lines":[ { "name": "Northern" } ], "labelX": 30 }, "geometry": { "type": "Point", "coordinates": [ -0.226098700000016, 51.583132899999988 ] } },
{ "type": "Feature", "properties": { "id":"940GZZLUHGD", "name":"Hillingdon","tfl_intid": 606, "tfl_statid": 126, "lines":[ { "name": "Metropolitan" }, { "name": "Piccadilly" } ], "labelX": 1, "labelY": 40 }, "geometry": { "type": "Point", "coordinates": [ -0.4501984, 51.553725499999985 ] } },
{ "type": "Feature", "properties": { "id":"940GZZLUHGR", "name":"Hanger Lane","tfl_intid": 595, "tfl_statid": 113, "lines":[ { "name": "Central" } ], "labelX": -25, "labelY": 20  }, "geometry": { "type": "Point", "coordinates": [ -0.2932869, 51.5302977 ] } },
{ "type": "Feature", "properties": { "id":"940GZZLUHGT", "name":"Highgate","tfl_intid": 604, "tfl_statid": 125, "night": true, "lines":[ { "name": "Northern" } ], "labelX": 30 }, "geometry": { "type": "Point", "coordinates": [ -0.145782, 51.5776446 ] } },
{ "type": "Feature", "properties": { "id":"940GZZLUHLT", "name":"Hainault","tfl_intid": 592, "tfl_statid": 110, "night": true, "lines":[ { "name": "Central" } ], "labelX": 30 }, "geometry": { "type": "Point", "coordinates": [ 0.093471800000022, 51.6037095 ] } },
{ "type": "Feature", "properties": { "id":"940GZZLUHNX", "name":"Hatton\nCross","tfl_intid": 779, "tfl_statid": 117, "night": true, "lines":[ { "name": "Piccadilly" } ], "labelX": 20, "labelY": 35 }, "geometry": { "type": "Point", "coordinates": [ -0.423116499999987, 51.466720599999988 ] } },
{ "type": "Feature", "properties": { "id":"940GZZLUHOH", "name":"Harrow-on-the-Hill","tfl_intid": 598, "tfl_statid": 116, "lines":[ { "name": "Metropolitan" } ], "labelX": -1, "labelY": 35 }, "geometry": { "type": "Point", "coordinates": [ -0.336304700000013, 51.579237699999979 ] } },
{ "type": "Feature", "properties": { "id":"940GZZLUHPC", "name":"Hyde Park Corner","tfl_intid": 614, "tfl_statid": 134, "night": true, "lines":[ { "name": "Piccadilly" } ], "labelX": -25, "labelY": -20 }, "geometry": { "type": "Point", "coordinates": [ -0.1525574, 51.502960700000038 ] } },
{ "type": "Feature", "properties": { "id":"940GZZLUHPK", "name":"Holland\nPark","tfl_intid": 608, "tfl_statid": 128, "night": true, "lines":[ { "name": "Central" } ], "labelX": 25, "labelY": 40 }, "geometry": { "type": "Point", "coordinates": [ -0.205642100000012, 51.5072766 ] } },
{ "type": "Feature", "properties": { "id":"940GZZLUHR4", "name":"Heathrow\nTerminal 4","tfl_intid": 781, "tfl_statid": 118, "lines":[ { "name": "Piccadilly" }, { "name": "Crossrail", "opened": 2018 } ], "labelX": 20, "labelY": 35 }, "geometry": { "type": "Point", "coordinates": [ -0.4454346, 51.458659 ] } },
{ "type": "Feature", "properties": { "id":"940GZZLUHR5", "name":"Heathrow Terminal 5","tfl_intid": 783, "tfl_statid": 306, "night": true, "lines":[ { "name": "Piccadilly", "opened": 2008 } ], "labelX": -30 }, "geometry": { "type": "Point", "coordinates": [ -0.4901043, 51.4725477 ] } },
{ "type": "Feature", "properties": { "id":"940GZZLUHRC", "name":"Heathrow Terminals 1 2 3","tfl_intid": 780, "tfl_statid": 119, "night": true, "lines":[ { "name": "Piccadilly" }, { "name": "Crossrail", "opened": 2018 } ], "labelX": 30 }, "geometry": { "type": "Point", "coordinates": [ -0.4550013, 51.472504800000017 ] } },
{ "type": "Feature", "properties": { "id":"940GZZLUHSK", "name":"High Street Kensington","tfl_intid": 605, "tfl_statid": 123, "lines":[ { "name": "District" }, { "name": "Circle" } ], "labelX": 30 }, "geometry": { "type": "Point", "coordinates": [ -0.19266, 51.50094110000002 ] } },
{ "type": "Feature", "properties": { "id":"940GZZLUHSN", "name":"Harlesden", "altid": "910GHARLSDN", "tfl_intid": 596, "tfl_statid": 114, "lines":[ { "name": "Bakerloo" }, { "name": "London Overground", "opened": 2007 } ], "labelX": 30 }, "geometry": { "type": "Point", "coordinates": [ -0.2579537, 51.53637 ] } },
{ "type": "Feature", "properties": { "id":"940GZZLUHTD", "name":"Hampstead","tfl_intid": 594, "tfl_statid": 112, "night": true, "lines":[ { "name": "Northern" } ], "labelX": -30 }, "geometry": { "type": "Point", "coordinates": [ -0.178195700000022, 51.556394199999986 ] } },
{ "type": "Feature", "properties": { "id":"940GZZLUHWC", "name":"Hounslow\nCentral","tfl_intid": 611, "tfl_statid": 131, "night": true, "lines":[ { "name": "Piccadilly" } ], "labelX": -1, "labelY": 50 }, "geometry": { "type": "Point", "coordinates": [ -0.366413099999989, 51.4713061 ] } },
{ "type": "Feature", "properties": { "id":"940GZZLUHWE", "name":"Hounslow East","tfl_intid": 612, "tfl_statid": 132, "night": true, "lines":[ { "name": "Piccadilly" } ], "labelX": 30 }, "geometry": { "type": "Point", "coordinates": [ -0.3563131, 51.473228400000018 ] } },
{ "type": "Feature", "properties": { "id":"940GZZLUHWT", "name":"Hounslow\nWest","tfl_intid": 613, "tfl_statid": 133, "night": true, "lines":[ { "name": "Piccadilly" } ], "labelX": -1, "labelY": 45 }, "geometry": { "type": "Point", "coordinates": [ -0.3864471, 51.473525400000028 ] } },
{ "type": "Feature", "properties": { "id":"940GZZLUHWY", "name":"Holloway\nRoad","tfl_intid": 609, "tfl_statid": 129, "night": true, "lines":[ { "name": "Piccadilly" } ], "labelX": -20, "labelY": -20 }, "geometry": { "type": "Point", "coordinates": [ -0.1130087, 51.552730299999986 ] } },
{ "type": "Feature", "properties": { "id":"940GZZLUICK", "name":"Ickenham","tfl_intid": 615, "tfl_statid": 135, "lines":[ { "name": "Metropolitan" }, { "name": "Piccadilly" } ], "labelX": -30 }, "geometry": { "type": "Point", "coordinates": [ -0.4420561, 51.5619724 ] } },
{ "type": "Feature", "properties": { "id":"940GZZLUKBN", "name":"Kilburn","tfl_intid": 622, "tfl_statid": 143, "night": true, "lines":[ { "name": "Jubilee" } ], "labelX": -25, "labelY": 20 }, "geometry": { "type": "Point", "coordinates": [ -0.2052862, 51.5470247 ] } },
{ "type": "Feature", "properties": { "id":"940GZZLUKBY", "name":"Kingsbury","tfl_intid": 624, "tfl_statid": 146, "night": true, "lines":[ { "name": "Jubilee" } ], "labelX": 30 }, "geometry": { "type": "Point", "coordinates": [ -0.2786225, 51.5847165 ] } },
{ "type": "Feature", "properties": { "id":"940GZZLUKEN", "name":"Kenton","tfl_intid": 620, "altid": "910GKTON", "tfl_statid": 141, "lines":[ { "name": "Bakerloo" }, { "name": "London Overground", "opened": 2007 } ], "labelX": 30 }, "geometry": { "type": "Point", "coordinates": [ -0.31662, 51.5815305 ] } },
{ "type": "Feature", "properties": { "id":"940GZZLUKNB", "name":"Knightsbridge","tfl_intid": 626, "tfl_statid": 147, "night": true, "lines":[ { "name": "Piccadilly" } ], "labelX": 25, "labelY": 20 }, "geometry": { "type": "Point", "coordinates": [ -0.1605916, 51.501605699999985 ] } },
{ "type": "Feature", "properties": { "id":"940GZZLUKNG", "name":"Kennington","tfl_intid": 616, "tfl_statid": 137, "night": true, "lines":[ { "name": "Northern" } ], "labelX": 30 }, "geometry": { "type": "Point", "coordinates": [ -0.105552813622772, 51.48881798928327 ] } },
{ "type": "Feature", "properties": { "id":"940GZZLUKOY", "name":"Kensington\n(Olympia)", "altid": "910GKENOLYM", "tfl_intid": 618, "tfl_statid": 139, "lines":[ { "name": "District" }, { "name": "London Overground", "opened": 2007 } ], "labelX": 30 }, "geometry": { "type": "Point", "coordinates": [ -0.20959269987014, 51.497533788565804 ] } },
{ "type": "Feature", "properties": { "id":"940GZZLUKPK", "name":"Kilburn Park","tfl_intid": 623, "tfl_statid": 144, "lines":[ { "name": "Bakerloo" } ], "labelX": 30 }, "geometry": { "type": "Point", "coordinates": [ -0.1941339, 51.535154500000012 ] } },
{ "type": "Feature", "properties": { "id":"940GZZLUKSH", "name":"Kentish\nTown","tfl_intid": 619, "tfl_statid": 140, "night": true, "lines":[ { "name": "Northern" } ], "labelX": 30 }, "geometry": { "type": "Point", "coordinates": [ -0.140740188173803, 51.550310338979649 ] } },
{ "type": "Feature", "properties": { "id":"940GZZLUKSL", "name":"Kensal Green", "altid": "910GKENSLG", "tfl_intid": 617, "tfl_statid": 138, "lines":[ { "name": "Bakerloo" }, { "name": "London Overground", "opened": 2007 } ], "labelX": 25, "labelY": 20 }, "geometry": { "type": "Point", "coordinates": [ -0.2245959, 51.530573 ] } },
{ "type": "Feature", "properties": { "id":"940GZZLUKSX", "name":"King's Cross\nSt. Pancras","tfl_intid": 625, "tfl_statid": 145, "night": true, "lines":[ { "name": "Hammersmith & City" }, { "name": "Circle" }, { "name": "Metropolitan" }, { "name": "Northern" }, { "name": "Piccadilly" }, { "name": "Victoria" } ], "labelX": 25, "labelY": 40 }, "geometry": { "type": "Point", "coordinates": [ -0.122943599999982, 51.5306048 ] } },
{ "type": "Feature", "properties": { "id":"940GZZLUKWG", "name":"Kew Gardens","altid": "910GKEWGRDN", "tfl_intid": 621, "tfl_statid": 142, "lines":[ { "name": "District" }, { "name": "London Overground", "opened": 2007 } ], "labelX": -30 }, "geometry": { "type": "Point", "coordinates": [ -0.285013100000016, 51.4770773 ] } },
{ "type": "Feature", "properties": { "id":"940GZZLULAD", "name":"Ladbroke\nGrove","tfl_intid": 627, "tfl_statid": 148, "lines":[ { "name": "Circle", "opened": 2009 }, { "name": "Hammersmith & City" } ], "labelX": 30 }, "geometry": { "type": "Point", "coordinates": [ -0.2109422, 51.5172681 ] } },
{ "type": "Feature", "properties": { "id":"940GZZLULBN", "name":"Lambeth North","tfl_intid": 628, "tfl_statid": 149, "lines":[ { "name": "Bakerloo" } ], "labelX": 30 }, "geometry": { "type": "Point", "coordinates": [ -0.1122875, 51.498886400000025 ] } },
{ "type": "Feature", "properties": { "id":"940GZZLULGN", "name":"Loughton","tfl_intid": 636, "tfl_statid": 159, "night": true, "lines":[ { "name": "Central" } ], "labelX": -30 }, "geometry": { "type": "Point", "coordinates": [ 0.0552549, 51.641360600000013 ] } },
{ "type": "Feature", "properties": { "id":"940GZZLULGT", "name":"Lancaster Gate","tfl_intid": 629, "tfl_statid": 150, "night": true, "lines":[ { "name": "Central" } ], "labelX": 25, "labelY": 20 }, "geometry": { "type": "Point", "coordinates": [ -0.175144900000013, 51.511871299999989 ] } },
{ "type": "Feature", "properties": { "id":"940GZZLULNB", "name":"London Bridge","tfl_intid": 635, "tfl_statid": 158, "night": true, "lines":[ { "name": "Jubilee" }, { "name": "Northern" } ], "labelX": 30 }, "geometry": { "type": "Point", "coordinates": [ -0.089634992753828, 51.505020228027242 ] } },
{ "type": "Feature", "properties": { "id":"940GZZLULRD", "name":"Latimer\nRoad","tfl_intid": 630, "tfl_statid": 151, "lines":[ { "name": "Circle", "opened": 2009 }, { "name": "Hammersmith & City" } ], "labelX": 30 }, "geometry": { "type": "Point", "coordinates": [ -0.2179095, 51.513396700000015 ] } },
{ "type": "Feature", "properties": { "id":"940GZZLULSQ", "name":"Leicester Square","tfl_intid": 631, "tfl_statid": 152, "night": true, "lines":[ { "name": "Northern" }, { "name": "Piccadilly" } ], "labelX": 30 }, "geometry": { "type": "Point", "coordinates": [ -0.128489604830758, 51.511222720162749 ] } },
{ "type": "Feature", "properties": { "id":"940GZZLULVT", "name":"Liverpool Street", "altid": "910GLIVST", "tfl_intid": 634, "tfl_statid": 157, "night": true, "lines":[ { "name": "Central" }, { "name": "Hammersmith & City" }, { "name": "Circle" }, { "name": "Metropolitan" }, { "name": "London Overground", "opened": 2015 }, { "name": "TfL Rail", "opened": 2015, "closed": 2017 }, { "name": "Crossrail", "opened": 2018 } ], "labelX": 30 }, "geometry": { "type": "Point", "coordinates": [ -0.083213025282048, 51.517300035168248 ] } },
{ "type": "Feature", "properties": { "id":"940GZZLULYN", "name":"Leyton","tfl_intid": 632, "tfl_statid": 154, "night": true, "lines":[ { "name": "Central" } ], "labelX": 30 }, "geometry": { "type": "Point", "coordinates": [ -0.0054072, 51.556631300000014 ] } },
{ "type": "Feature", "properties": { "id":"940GZZLULYS", "name":"Leytonstone","tfl_intid": 633, "tfl_statid": 155, "night": true, "lines":[ { "name": "Central" } ], "labelX": 30 }, "geometry": { "type": "Point", "coordinates": [ 0.0084026, 51.5685814 ] } },
{ "type": "Feature", "properties": { "id":"940GZZLUMBA", "name":"Marble Arch","tfl_intid": 640, "tfl_statid": 163, "night": true, "lines":[ { "name": "Central" } ], "labelX": 25, "labelY": 20 }, "geometry": { "type": "Point", "coordinates": [ -0.157835599999981, 51.513539800000011 ] } },
{ "type": "Feature", "properties": { "id":"940GZZLUMDN", "name":"Morden","tfl_intid": 647, "tfl_statid": 170, "night": true, "lines":[ { "name": "Northern" } ], "labelX": -30 }, "geometry": { "type": "Point", "coordinates": [ -0.194733700000011, 51.40234550000001 ] } },
{ "type": "Feature", "properties": { "id":"940GZZLUMED", "name":"Mile End","tfl_intid": 642, "tfl_statid": 165, "night": true, "lines":[ { "name": "Central" }, { "name": "District" }, { "name": "Hammersmith & City" } ], "labelX": 30 }, "geometry": { "type": "Point", "coordinates": [ -0.033444900000021, 51.525356300000041 ] } },
{ "type": "Feature", "properties": { "id":"940GZZLUMGT", "name":"Moorgate","tfl_intid": 645, "tfl_statid": 169, "lines":[ { "name": "Hammersmith & City" }, { "name": "Circle" }, { "name": "Metropolitan" }, { "name": "Northern" } ], "labelX": 25, "labelY": -20 }, "geometry": { "type": "Point", "coordinates": [ -0.08829012211452, 51.518119778656491 ] } },
{ "type": "Feature", "properties": { "id":"940GZZLUMHL", "name":"Mill Hill East","tfl_intid": 643, "tfl_statid": 166, "lines":[ { "name": "Northern" } ], "labelX": 30 }, "geometry": { "type": "Point", "coordinates": [ -0.2101506, 51.60825 ] } },
{ "type": "Feature", "properties": { "id":"940GZZLUMMT", "name":"Monument","tfl_intid": 644, "lines": [ { "name": "District" }, { "name": "Circle" } ], "labelX": 30 }, "geometry": { "type": "Point", "coordinates": [ -0.0864765, 51.510725900000011 ] } },
{ "type": "Feature", "properties": { "id":"940GZZLUMPK", "name":"Moor Park","tfl_intid": 646, "tfl_statid": 168, "lines":[ { "name": "Metropolitan" } ], "labelX": 30 }, "geometry": { "type": "Point", "coordinates": [ -0.4322344, 51.6297741 ] } },
{ "type": "Feature", "properties": { "id":"940GZZLUMRH", "name":"Manor\nHouse","tfl_intid": 638, "tfl_statid": 161, "night": true, "lines":[ { "name": "Piccadilly" } ], "labelX": 30 }, "geometry": { "type": "Point", "coordinates": [ -0.096185696827964, 51.570490779589242 ] } },
{ "type": "Feature", "properties": { "id":"940GZZLUMSH", "name":"Mansion House","tfl_intid": 639, "tfl_statid": 162, "lines":[ { "name": "District" }, { "name": "Circle" } ], "labelY": -35 }, "geometry": { "type": "Point", "coordinates": [ -0.0937541, 51.5119105 ] } },
{ "type": "Feature", "properties": { "id":"940GZZLUMTC", "name":"Mornington\nCrescent","tfl_intid": 648, "tfl_statid": 171, "night": true, "lines":[ { "name": "Northern" } ], "labelX": 30 }, "geometry": { "type": "Point", "coordinates": [ -0.1385393, 51.5343579 ] } },
{ "type": "Feature", "properties": { "id":"940GZZLUMVL", "name":"Maida Vale","tfl_intid": 637, "tfl_statid": 160, "lines":[ { "name": "Bakerloo" } ], "labelX": 30 }, "geometry": { "type": "Point", "coordinates": [ -0.1857746, 51.5298025 ] } },
{ "type": "Feature", "properties": { "id":"940GZZLUMYB", "name":"Marylebone","tfl_intid": 641, "tfl_statid": 164, "lines":[ { "name": "Bakerloo" } ], "labelX": -30 }, "geometry": { "type": "Point", "coordinates": [ -0.163221599999988, 51.522276 ] } },
{ "type": "Feature", "properties": { "id":"940GZZLUNAN", "name":"North Acton","tfl_intid": 653, "tfl_statid": 177, "night": true, "lines":[ { "name": "Central" } ], "labelX": 30 }, "geometry": { "type": "Point", "coordinates": [ -0.2597136263647, 51.523604745436081 ] } },
{ "type": "Feature", "properties": { "id":"940GZZLUNBP", "name":"Newbury Park","tfl_intid": 650, "tfl_statid": 176, "night": true, "lines":[ { "name": "Central" } ], "labelX": 30 }, "geometry": { "type": "Point", "coordinates": [ 0.0899473, 51.575598 ] } },
{ "type": "Feature", "properties": { "id":"940GZZLUNDN", "name":"Neasden","tfl_intid": 649, "tfl_statid": 173, "night": true, "lines":[ { "name": "Jubilee" } ], "labelX": 25, "labelY": -20 }, "geometry": { "type": "Point", "coordinates": [ -0.249963099999984, 51.5541682 ] } },
{ "type": "Feature", "properties": { "id":"940GZZLUNEN", "name":"North\nEaling","tfl_intid": 654, "tfl_statid": 178, "lines":[ { "name": "Piccadilly" } ], "labelX": -1, "labelY": -50 }, "geometry": { "type": "Point", "coordinates": [ -0.2885356, 51.5176946 ] } },
{ "type": "Feature", "properties": { "id":"940GZZLUNFD", "name":"Northfields","tfl_intid": 655, "tfl_statid": 182, "night": true, "lines":[ { "name": "Piccadilly" } ], "labelX": -25, "labelY": -20 }, "geometry": { "type": "Point", "coordinates": [ -0.313162357542755, 51.499603592561556 ] } },
{ "type": "Feature", "properties": { "id":"940GZZLUNGW", "name":"North Greenwich","tfl_intid": 789, "tfl_statid": 179, "night": true, "lines":[ { "name": "Jubilee" } ], "labelX": 30 }, "geometry": { "type": "Point", "coordinates": [ 0.0038848, 51.5000936 ] } },
{ "type": "Feature", "properties": { "id":"940GZZLUNHA", "name":"North Harrow","tfl_intid": 656, "tfl_statid": 180, "lines":[ { "name": "Metropolitan" } ], "labelX": 30 }, "geometry": { "type": "Point", "coordinates": [ -0.362797500000016, 51.584999600000017 ] } },
{ "type": "Feature", "properties": { "id":"940GZZLUNHG", "name":"Notting Hill\nGate","tfl_intid": 663, "tfl_statid": 187, "night": true, "lines":[ { "name": "Central" }, { "name": "District" }, { "name": "Circle" } ], "labelX": 25, "labelY": 40 }, "geometry": { "type": "Point", "coordinates": [ -0.19609468475556, 51.5091997785415 ] } },
{ "type": "Feature", "properties": { "id":"940GZZLUNHT", "name":"Northolt","tfl_intid": 657, "tfl_statid": 183, "lines":[ { "name": "Central" } ], "labelX": -25, "labelY": 20  }, "geometry": { "type": "Point", "coordinates": [ -0.369071, 51.548390899999987 ] } },
{ "type": "Feature", "properties": { "id":"940GZZLUNKP", "name":"Northwick Park","tfl_intid": 660, "tfl_statid": 184, "lines":[ { "name": "Metropolitan" } ], "labelX": 30 }, "geometry": { "type": "Point", "coordinates": [ -0.317777099999981, 51.5784882 ] } },
{ "type": "Feature", "properties": { "id":"940GZZLUNOW", "name":"Northwood","tfl_intid": 661, "tfl_statid": 185, "lines":[ { "name": "Metropolitan" } ], "labelX": 30 }, "geometry": { "type": "Point", "coordinates": [ -0.4237294, 51.6107855 ] } },
{ "type": "Feature", "properties": { "id":"940GZZLUNWH", "name":"Northwood Hills","tfl_intid": 662, "tfl_statid": 186, "lines":[ { "name": "Metropolitan" } ], "labelX": 30 }, "geometry": { "type": "Point", "coordinates": [ -0.4089628, 51.6003649 ] } },
{ "type": "Feature", "properties": { "id":"910GNWCRELL", "name":"New Cross","tfl_intid": 5150, "tfl_statid": 174, "lines":[ { "name": "London Overground", "opened": 2010 }, { "name": "East London", "closed": 2007 } ], "labelX": 30 }, "geometry": { "type": "Point", "coordinates": [ -0.032341199999981, 51.476631099999985 ] } },
{ "type": "Feature", "properties": { "id":"940GZZLUNWY", "name":"North Wembley","altid": "910GNWEMBLY","tfl_intid": 659, "tfl_statid": 181, "lines":[ { "name": "Bakerloo" }, { "name": "London Overground", "opened": 2007 } ], "labelX": 30 }, "geometry": { "type": "Point", "coordinates": [ -0.3038748, 51.562405900000023 ] } },
{ "type": "Feature", "properties": { "id":"910GNEWXGEL", "name":"New Cross Gate","tfl_intid": 5345, "tfl_statid": 175, "lines":[ { "name": "London Overground", "opened": 2010 }, { "name": "East London", "closed": 2007 } ], "labelX": -25, "labelY": -20 }, "geometry": { "type": "Point", "coordinates": [ -0.040267, 51.475432799999979 ] } },
{ "type": "Feature", "properties": { "id":"940GZZLUOAK", "name":"Oakwood","tfl_intid": 664, "tfl_statid": 188, "night": true, "lines":[ { "name": "Piccadilly" } ], "labelX": 30 }, "geometry": { "type": "Point", "coordinates": [ -0.131485200000019, 51.6473767 ] } },
{ "type": "Feature", "properties": { "id":"940GZZLUODS", "name":"Old Street","tfl_intid": 665, "tfl_statid": 189, "lines":[ { "name": "Northern" } ], "labelX": 30 }, "geometry": { "type": "Point", "coordinates": [ -0.087541799999989, 51.525628399999988 ] } },
{ "type": "Feature", "properties": { "id":"940GZZLUOSY", "name":"Osterley","tfl_intid": 667, "tfl_statid": 190, "night": true, "lines":[ { "name": "Piccadilly" } ], "labelX": 30 }, "geometry": { "type": "Point", "coordinates": [ -0.3522965, 51.4811241 ] } },
{ "type": "Feature", "properties": { "id":"940GZZLUOVL", "name":"Oval","tfl_intid": 668, "tfl_statid": 191, "night": true, "lines":[ { "name": "Northern" } ], "labelX": 30 }, "geometry": { "type": "Point", "coordinates": [ -0.1123685, 51.4818291 ] } },
{ "type": "Feature", "properties": { "id":"940GZZLUOXC", "name":"Oxford Circus","tfl_intid": 669, "tfl_statid": 192, "night": true, "lines":[ { "name": "Bakerloo" }, { "name": "Central" }, { "name": "Victoria" } ], "labelX": 25, "labelY": 20 }, "geometry": { "type": "Point", "coordinates": [ -0.142080221996661, 51.515307860264464 ] } },
{ "type": "Feature", "properties": { "id":"940GZZLUPAC", "name":"Paddington (Praed St)","tfl_intid": 3087, "lines": [ { "name": "Bakerloo" }, { "name": "District" }, { "name": "Circle" }, { "name": "Crossrail", "opened": 2018, "closed": 2018 } ], "labelX": 30 }, "geometry": { "type": "Point", "coordinates": [ -0.174490700144989, 51.515954760147189 ] } },
{ "type": "Feature", "properties": { "id":"940GZZLUPAH", "name":"Paddington","tfl_intid": 670, "tfl_statid": 193, "lines":[ { "name": "Hammersmith & City" }, { "name": "Circle", "opened": 2009 }, { "name": "Crossrail", "opened": 2018 } ], "labelX": -25, "labelY": 20 }, "geometry": { "type": "Point", "coordinates": [ -0.1792041, 51.5172769 ] } },
{ "type": "Feature", "properties": { "id":"940GZZLUPCC", "name":"Piccadilly Circus","tfl_intid": 674, "tfl_statid": 197, "night": true, "lines":[ { "name": "Bakerloo" }, { "name": "Piccadilly" } ], "labelX": -30 }, "geometry": { "type": "Point", "coordinates": [ -0.1334419, 51.509958800000021 ] } },
{ "type": "Feature", "properties": { "id":"940GZZLUPCO", "name":"Pimlico","tfl_intid": 776, "tfl_statid": 198, "night": true, "lines":[ { "name": "Victoria" } ], "labelX": 30 }, "geometry": { "type": "Point", "coordinates": [ -0.1329542, 51.4888907 ] } },
{ "type": "Feature", "properties": { "id":"940GZZLUPKR", "name":"Park Royal","tfl_intid": 671, "tfl_statid": 194, "lines":[ { "name": "Piccadilly" } ], "labelX": -30 }, "geometry": { "type": "Point", "coordinates": [ -0.283955299999988, 51.5265228 ] } },
{ "type": "Feature", "properties": { "id":"940GZZLUPLW", "name":"Plaistow","tfl_intid": 676, "tfl_statid": 200, "lines":[ { "name": "District" }, { "name": "Hammersmith & City" } ], "labelX": 30 }, "geometry": { "type": "Point", "coordinates": [ 0.0165714, 51.531157400000033 ] } },
{ "type": "Feature", "properties": { "id":"940GZZLUPNR", "name":"Pinner","tfl_intid": 675, "tfl_statid": 199, "lines":[ { "name": "Metropolitan" } ], "labelX": 30 }, "geometry": { "type": "Point", "coordinates": [ -0.3808098, 51.59271360000001 ] } },
{ "type": "Feature", "properties": { "id":"940GZZLUPRD", "name":"Preston Road","tfl_intid": 677, "tfl_statid": 202, "lines":[ { "name": "Metropolitan" } ], "labelX": 30 }, "geometry": { "type": "Point", "coordinates": [ -0.2951445, 51.5720742 ] } },
{ "type": "Feature", "properties": { "id":"940GZZLUPSG", "name":"Parsons Green","tfl_intid": 672, "tfl_statid": 195, "lines":[ { "name": "District" } ], "labelX": -30 }, "geometry": { "type": "Point", "coordinates": [ -0.201087200000017, 51.475302499999984 ] } },
{ "type": "Feature", "properties": { "id":"940GZZLUPVL", "name":"Perivale","tfl_intid": 673, "tfl_statid": 196, "lines":[ { "name": "Central" } ], "labelX": -25, "labelY": 20  }, "geometry": { "type": "Point", "coordinates": [ -0.3235798, 51.5367397 ] } },
{ "type": "Feature", "properties": { "id":"940GZZLUPYB", "name":"Putney Bridge","tfl_intid": 678, "tfl_statid": 205, "lines":[ { "name": "District" } ], "labelX": -30 }, "geometry": { "type": "Point", "coordinates": [ -0.2088175, 51.468345 ] } },
{ "type": "Feature", "properties": { "id":"940GZZLUQBY", "name":"Queensbury","tfl_intid": 679, "tfl_statid": 207, "night": true, "lines":[ { "name": "Jubilee" } ], "labelX": 30 }, "geometry": { "type": "Point", "coordinates": [ -0.286185500000011, 51.5941727 ] } },
{ "type": "Feature", "properties": { "id":"940GZZLUQPS", "name":"Queen's\nPark", "altid": "910GQPRK", "tfl_intid": 680, "tfl_statid": 206, "lines":[ { "name": "Bakerloo" }, { "name": "London Overground", "opened": 2007 } ], "labelX": 1, "labelY": 45 }, "geometry": { "type": "Point", "coordinates": [ -0.20550560000001, 51.533992800000021 ] } },
{ "type": "Feature", "properties": { "id":"940GZZLUQWY", "name":"Queensway","tfl_intid": 681, "tfl_statid": 208, "night": true, "lines":[ { "name": "Central" } ], "labelX": 25, "labelY": 20 }, "geometry": { "type": "Point", "coordinates": [ -0.1872298, 51.510500399999984 ] } },
{ "type": "Feature", "properties": { "id":"940GZZLURBG", "name":"Redbridge","tfl_intid": 684, "tfl_statid": 211, "night": true, "lines":[ { "name": "Central" } ], "labelX": 25, "labelY": 20 }, "geometry": { "type": "Point", "coordinates": [ 0.045411, 51.5763628 ] } },
{ "type": "Feature", "properties": { "id":"940GZZLURGP", "name":"Regent's Park","tfl_intid": 685, "tfl_statid": 212, "lines":[ { "name": "Bakerloo" } ], "labelX": 25, "labelY": 20 }, "geometry": { "type": "Point", "coordinates": [ -0.1464996, 51.523447200000021 ] } },
{ "type": "Feature", "properties": { "id":"940GZZLURKW", "name":"Rickmansworth","tfl_intid": 687, "tfl_statid": 214, "lines":[ { "name": "Metropolitan" } ], "labelX": -25, "labelY": 20 }, "geometry": { "type": "Point", "coordinates": [ -0.4735825, 51.640181499999983 ] } },
{ "type": "Feature", "properties": { "id":"940GZZLURMD", "name":"Richmond","altid": "910GRICHMND", "tfl_intid": 686, "tfl_statid": 213, "lines":[ { "name": "District" }, { "name": "London Overground", "opened": 2007 } ], "labelX": -30 }, "geometry": { "type": "Point", "coordinates": [ -0.3011844, 51.463331300000014 ] } },
{ "type": "Feature", "properties": { "id":"910GRTHERHI", "name":"Rotherhithe","tfl_intid": 1039, "tfl_statid": 216, "lines":[ { "name": "London Overground", "opened": 2010 }, { "name": "East London", "closed": 2007 } ], "labelX": 30 }, "geometry": { "type": "Point", "coordinates": [ -0.0521216, 51.501029100000011 ] } },
{ "type": "Feature", "properties": { "id":"940GZZLURSG", "name":"Ruislip Gardens","tfl_intid": 692, "tfl_statid": 221, "lines":[ { "name": "Central" } ], "labelX": -25, "labelY": 20 }, "geometry": { "type": "Point", "coordinates": [ -0.4105946, 51.5607409 ] } },
{ "type": "Feature", "properties": { "id":"940GZZLURSM", "name":"Ruislip Manor","tfl_intid": 693, "tfl_statid": 222, "lines":[ { "name": "Metropolitan" }, { "name": "Piccadilly" } ], "labelX": -25, "labelY": -20 }, "geometry": { "type": "Point", "coordinates": [ -0.4123881, 51.573307400000019 ] } },
{ "type": "Feature", "properties": { "id":"940GZZLURSP", "name":"Ruislip","tfl_intid": 691, "tfl_statid": 220, "lines":[ { "name": "Metropolitan" }, { "name": "Piccadilly" } ], "labelX": 25, "labelY": 20 }, "geometry": { "type": "Point", "coordinates": [ -0.421628056129001, 51.571372750800926 ] } },
{ "type": "Feature", "properties": { "id":"940GZZLURSQ", "name":"Russell Square","tfl_intid": 694, "tfl_statid": 223, "night": true, "lines":[ { "name": "Piccadilly" } ], "labelX": 30 }, "geometry": { "type": "Point", "coordinates": [ -0.1242034, 51.52314530000001 ] } },
{ "type": "Feature", "properties": { "id":"940GZZLURVP", "name":"Ravenscourt\nPark","tfl_intid": 682, "tfl_statid": 209, "lines":[ { "name": "District" } ], "labelX": 1, "labelY": -55 }, "geometry": { "type": "Point", "coordinates": [ -0.2357975, 51.4941167 ] } },
{ "type": "Feature", "properties": { "id":"940GZZLURVY", "name":"Roding Valley","tfl_intid": 688, "tfl_statid": 215, "lines":[ { "name": "Central" } ], "labelX": 30 }, "geometry": { "type": "Point", "coordinates": [ 0.0438798, 51.617105700000018 ] } },
{ "type": "Feature", "properties": { "id":"940GZZLURYL", "name":"Rayners Lane","tfl_intid": 683, "tfl_statid": 210, "lines":[ { "name": "Metropolitan" }, { "name": "Piccadilly" } ], "labelX": -25, "labelY": 20 }, "geometry": { "type": "Point", "coordinates": [ -0.3712814, 51.5751882 ] } },
{ "type": "Feature", "properties": { "id":"940GZZLURYO", "name":"Royal Oak","tfl_intid": 690, "tfl_statid": 218, "lines":[ { "name": "Circle", "opened": 2009 }, { "name": "Hammersmith & City" } ], "labelX": 30 }, "geometry": { "type": "Point", "coordinates": [ -0.187989029546517, 51.519062753521645 ] } },
{ "type": "Feature", "properties": { "id":"940GZZLUSBC", "name":"Shepherd's\nBush","altid": "910GSHPDSB", "tfl_intid": 700, "tfl_statid": 226, "night": true, "lines":[ { "name": "Central" }, { "name": "London Overground", "opened": 2007 } ], "labelX": 25, "labelY": 40 }, "geometry": { "type": "Point", "coordinates": [ -0.217128255502097, 51.504597558060567 ] } },
{ "type": "Feature", "properties": { "id":"940GZZLUSBM", "name":"Shepherd's Bush Market","tfl_intid": 775, "tfl_statid": 227, "lines":[ { "name": "Circle", "opened": 2009 }, { "name": "Hammersmith & City" } ], "labelX": -30 }, "geometry": { "type": "Point", "coordinates": [ -0.226383100000016, 51.5057965 ] } },
{ "type": "Feature", "properties": { "id":"910GSHRDHST", "name":"Shoreditch High Street","tfl_intid": 701, "lines": [ { "name": "London Overground", "opened": 2010 } ], "labelX": 25, "labelY": 20 }, "geometry": { "type": "Point", "coordinates": [ -0.0760711, 51.5232889 ] } },
{ "type": "Feature", "properties": { "id":"940GZZLUSEA", "name":"South Ealing","tfl_intid": 704, "tfl_statid": 231, "night": true, "lines":[ { "name": "Piccadilly" } ], "labelX": 30 }, "geometry": { "type": "Point", "coordinates": [ -0.307100987713729, 51.501029135420907 ] } },
{ "type": "Feature", "properties": { "id":"940GZZLUSFB", "name":"Stamford\nBrook","tfl_intid": 713, "tfl_statid": 245, "lines":[ { "name": "District" } ], "labelX": -1, "labelY": 55 }, "geometry": { "type": "Point", "coordinates": [ -0.2458347, 51.494938200000014 ] } },
{ "type": "Feature", "properties": { "id":"940GZZLUSFS", "name":"Southfields","tfl_intid": 705, "tfl_statid": 239, "lines":[ { "name": "District" } ], "labelX": -30 }, "geometry": { "type": "Point", "coordinates": [ -0.206705618951023, 51.445525292235558 ] } },
{ "type": "Feature", "properties": { "id":"940GZZLUSGN", "name":"Stepney Green","tfl_intid": 715, "tfl_statid": 247, "lines":[ { "name": "District" }, { "name": "Hammersmith & City" } ], "labelX": 30 }, "geometry": { "type": "Point", "coordinates": [ -0.046728200000012, 51.521714599999989 ] } },
{ "type": "Feature", "properties": { "id":"940GZZLUSGP", "name":"Stonebridge Park","altid": "910GSTNBGPK", "tfl_intid": 717, "tfl_statid": 249, "lines":[ { "name": "Bakerloo" }, { "name": "London Overground", "opened": 2007 } ], "labelX": 30 }, "geometry": { "type": "Point", "coordinates": [ -0.275700399999986, 51.543881199999987 ] } },
{ "type": "Feature", "properties": { "id":"940GZZLUSGT", "name":"Southgate","tfl_intid": 706, "tfl_statid": 240, "night": true, "lines":[ { "name": "Piccadilly" } ], "labelX": 30 }, "geometry": { "type": "Point", "coordinates": [ -0.1278107, 51.632333599999974 ] } },
{ "type": "Feature", "properties": { "id":"940GZZLUSHH", "name":"South Harrow","tfl_intid": 707, "tfl_statid": 232, "lines":[ { "name": "Piccadilly" } ], "labelX": 30 }, "geometry": { "type": "Point", "coordinates": [ -0.3522098, 51.5646621 ] } },
{ "type": "Feature", "properties": { "id":"940GZZLUSJP", "name":"St. James's Park","tfl_intid": 695, "tfl_statid": 242, "lines":[ { "name": "District" }, { "name": "Circle" } ], "labelX": 25, "labelY": 20 }, "geometry": { "type": "Point", "coordinates": [ -0.133535700000013, 51.499612 ] } },
{ "type": "Feature", "properties": { "id":"940GZZLUSJW", "name":"St. John's Wood","tfl_intid": 696, "tfl_statid": 243, "night": true, "lines":[ { "name": "Jubilee" } ], "labelX": 30 }, "geometry": { "type": "Point", "coordinates": [ -0.1740522, 51.534831 ] } },
{ "type": "Feature", "properties": { "id":"940GZZLUSKS", "name":"South\nKensington","tfl_intid": 708, "tfl_statid": 233, "night": true, "lines":[ { "name": "District" }, { "name": "Circle" }, { "name": "Piccadilly" } ], "labelX": 1, "labelY": 50 }, "geometry": { "type": "Point", "coordinates": [ -0.172900104340127, 51.494037104283528 ] } },
{ "type": "Feature", "properties": { "id":"940GZZLUSKT", "name":"South Kenton","altid": "910GSKENTON", "tfl_intid": 709, "tfl_statid": 234, "lines":[ { "name": "Bakerloo" }, { "name": "London Overground", "opened": 2007 } ], "labelX": -30 }, "geometry": { "type": "Point", "coordinates": [ -0.3083998, 51.5702541 ] } },
{ "type": "Feature", "properties": { "id":"940GZZLUSKW", "name":"Stockwell","tfl_intid": 716, "tfl_statid": 248, "night": true, "lines":[ { "name": "Northern" }, { "name": "Victoria" } ], "labelX": 30 }, "geometry": { "type": "Point", "coordinates": [ -0.1225019, 51.472179900000029 ] } },
{ "type": "Feature", "properties": { "id":"940GZZLUSNB", "name":"Snaresbrook","tfl_intid": 703, "tfl_statid": 230, "night": true, "lines":[ { "name": "Central" } ], "labelX": 30 }, "geometry": { "type": "Point", "coordinates": [ 0.0215136, 51.58073 ] } },
{ "type": "Feature", "properties": { "id":"940GZZLUSPU", "name":"St. Paul's","tfl_intid": 697, "tfl_statid": 244, "night": true, "lines":[ { "name": "Central" } ], "labelX": 30 }, "geometry": { "type": "Point", "coordinates": [ -0.097481976500947, 51.514924832234954 ] } },
{ "type": "Feature", "properties": { "id":"910GSURREYQ", "name":"Surrey Quays","tfl_intid": 1083, "tfl_statid": 253, "lines":[ { "name": "London Overground", "opened": 2010 }, { "name": "East London", "closed": 2007 } ], "labelX": 30 }, "geometry": { "type": "Point", "coordinates": [ -0.0476225, 51.493283 ] } },
{ "type": "Feature", "properties": { "id":"940GZZLUSRP", "name":"South Ruislip","tfl_intid": 710, "tfl_statid": 236, "lines":[ { "name": "Central" } ], "labelX": -25, "labelY": 20  }, "geometry": { "type": "Point", "coordinates": [ -0.3992884, 51.5570347 ] } },
{ "type": "Feature", "properties": { "id":"940GZZLUSSQ", "name":"Sloane\nSquare","tfl_intid": 702, "tfl_statid": 229, "lines":[ { "name": "District" }, { "name": "Circle" } ], "labelX": 1, "labelY": 50 }, "geometry": { "type": "Point", "coordinates": [ -0.1565262, 51.492348399999976 ] } },
{ "type": "Feature", "properties": { "id":"940GZZLUSTD", "name":"Stratford", "altid": "910GSTFD", "altid2": "940GZZDLSTD", "tfl_intid": 719, "tfl_statid": 250, "night": true, "night": true, "lines":[ { "name": "Central" }, { "name": "Jubilee" }, { "name": "DLR" }, { "name": "London Overground", "opened": 2007 }, { "name": "TfL Rail", "opened": 2015, "closed": 2017 }, { "name": "Crossrail", "opened": 2018 } ], "labelX": 30 }, "geometry": { "type": "Point", "coordinates": [ -0.003884495641132, 51.541494041083347 ] } },
{ "type": "Feature", "properties": { "id":"940GZZLUSTM", "name":"Stanmore","tfl_intid": 714, "tfl_statid": 246, "night": true, "lines":[ { "name": "Jubilee" } ], "labelX": 30 }, "geometry": { "type": "Point", "coordinates": [ -0.303016399999987, 51.619393 ] } },
{ "type": "Feature", "properties": { "id":"940GZZLUSUH", "name":"Sudbury Hill","tfl_intid": 720, "tfl_statid": 251, "lines":[ { "name": "Piccadilly" } ], "labelX": 30 }, "geometry": { "type": "Point", "coordinates": [ -0.336681963602042, 51.556988168700016 ] } },
{ "type": "Feature", "properties": { "id":"940GZZLUSUT", "name":"Sudbury Town","tfl_intid": 721, "tfl_statid": 252, "lines":[ { "name": "Piccadilly" } ], "labelX": -30 }, "geometry": { "type": "Point", "coordinates": [ -0.315803499999981, 51.5508479 ] } },
{ "type": "Feature", "properties": { "id":"940GZZLUSVS", "name":"Seven Sisters", "altid": "910GSEVNSIS", "tfl_intid": 698, "tfl_statid": 224, "night": true, "lines":[ { "name": "London Overground", "opened": 2015 }, { "name": "Victoria" } ], "labelX": -30 }, "geometry": { "type": "Point", "coordinates": [ -0.0751139, 51.5824478 ] } },
{ "type": "Feature", "properties": { "id":"940GZZLUSWC", "name":"Swiss\nCottage","tfl_intid": 723, "tfl_statid": 254, "night": true, "lines":[ { "name": "Jubilee" } ], "labelX": 30 }, "geometry": { "type": "Point", "coordinates": [ -0.1746633, 51.543336 ] } },
{ "type": "Feature", "properties": { "id":"940GZZLUSWF", "name":"South Woodford","tfl_intid": 712, "tfl_statid": 238, "night": true, "lines":[ { "name": "Central" } ], "labelX": 30 }, "geometry": { "type": "Point", "coordinates": [ 0.0273908, 51.591931599999988 ] } },
{ "type": "Feature", "properties": { "id":"940GZZLUSWK", "name":"Southwark","tfl_intid": 784, "tfl_statid": 241, "night": true, "lines":[ { "name": "Jubilee" } ], "labelX": 25, "labelY": -20 }, "geometry": { "type": "Point", "coordinates": [ -0.1051491, 51.50408010000001 ] } },
{ "type": "Feature", "properties": { "id":"940GZZLUSWN", "name":"South Wimbledon","tfl_intid": 711, "tfl_statid": 237, "night": true, "lines":[ { "name": "Northern" } ], "labelX": 25, "labelY": 20 }, "geometry": { "type": "Point", "coordinates": [ -0.1921381, 51.415328599999988 ] } },
{ "type": "Feature", "properties": { "id":"940GZZLUTAW", "name":"Totteridge & Whetstone","tfl_intid": 730, "tfl_statid": 261, "night": true, "lines":[ { "name": "Northern" } ], "labelX": 30 }, "geometry": { "type": "Point", "coordinates": [ -0.1791528, 51.630365399999988 ] } },
{ "type": "Feature", "properties": { "id":"940GZZLUTBC", "name":"Tooting Bec","tfl_intid": 726, "tfl_statid": 257, "night": true, "lines":[ { "name": "Northern" } ], "labelX": 30 }, "geometry": { "type": "Point", "coordinates": [ -0.1596505, 51.4355983 ] } },
{ "type": "Feature", "properties": { "id":"940GZZLUTBY", "name":"Tooting Broadway","tfl_intid": 727, "tfl_statid": 258, "night": true, "lines":[ { "name": "Northern" } ], "labelX": 30 }, "geometry": { "type": "Point", "coordinates": [ -0.1681853, 51.42774540000002 ] } },
{ "type": "Feature", "properties": { "id":"940GZZLUTCR", "name":"Tottenham Court Road","tfl_intid": 728, "tfl_statid": 259, "night": true, "lines":[ { "name": "Central" }, { "name": "Northern" }, { "name": "Crossrail", "opened": 2018 } ], "labelX": 30 }, "geometry": { "type": "Point", "coordinates": [ -0.130523714868367, 51.51646747042173 ] } },
{ "type": "Feature", "properties": { "id":"940GZZLUTFP", "name":"Tufnell\nPark","tfl_intid": 733, "tfl_statid": 264, "night": true, "lines":[ { "name": "Northern" } ], "labelX": 30 }, "geometry": { "type": "Point", "coordinates": [ -0.1384329, 51.556808 ] } },
{ "type": "Feature", "properties": { "id":"940GZZLUTHB", "name":"Theydon Bois","tfl_intid": 725, "tfl_statid": 256, "lines":[ { "name": "Central" } ], "labelX": 30 }, "geometry": { "type": "Point", "coordinates": [ 0.1032103, 51.6717381 ] } },
{ "type": "Feature", "properties": { "id":"940GZZLUTMH", "name":"Tottenham Hale","tfl_intid": 729, "tfl_statid": 260, "night": true, "lines":[ { "name": "Victoria" } ], "labelX": 25, "labelY": -20 }, "geometry": { "type": "Point", "coordinates": [ -0.060088100000022, 51.5883799 ] } },
{ "type": "Feature", "properties": { "id":"940GZZLUTMP", "name":"Temple","tfl_intid": 724, "tfl_statid": 255, "lines":[ { "name": "District" }, { "name": "Circle" } ], "labelX": 1, "labelY": 35 }, "geometry": { "type": "Point", "coordinates": [ -0.11375, 51.511061800000014 ] } },
{ "type": "Feature", "properties": { "id":"940GZZLUTNG", "name":"Turnham\nGreen","tfl_intid": 734, "tfl_statid": 265, "night": true, "lines":[ { "name": "District" }, { "name": "Piccadilly" } ], "labelX": 1, "labelY": -55 }, "geometry": { "type": "Point", "coordinates": [ -0.2545301, 51.495143499999969 ] } },
{ "type": "Feature", "properties": { "id":"940GZZLUTPN", "name":"Turnpike Lane","tfl_intid": 735, "tfl_statid": 266, "night": true, "lines":[ { "name": "Piccadilly" } ], "labelX": 30 }, "geometry": { "type": "Point", "coordinates": [ -0.1028465, 51.590348199999987 ] } },
{ "type": "Feature", "properties": { "id":"940GZZLUTWH", "name":"Tower Hill","tfl_intid": 731, "tfl_statid": 263, "lines":[ { "name": "District" }, { "name": "Circle" } ], "labelX": 1, "labelY": 35 }, "geometry": { "type": "Point", "coordinates": [ -0.0777502, 51.50981 ] } },
{ "type": "Feature", "properties": { "id":"940GZZLUUPB", "name":"Upminster Bridge","tfl_intid": 737, "tfl_statid": 268, "lines":[ { "name": "District" } ], "labelX": -30 }, "geometry": { "type": "Point", "coordinates": [ 0.2346938, 51.5583342 ] } },
{ "type": "Feature", "properties": { "id":"940GZZLUUPK", "name":"Upton Park","tfl_intid": 739, "tfl_statid": 270, "lines":[ { "name": "District" }, { "name": "Hammersmith & City" } ], "labelX": 30 }, "geometry": { "type": "Point", "coordinates": [ 0.034414099999989, 51.5352242 ] } },
{ "type": "Feature", "properties": { "id":"940GZZLUUPM", "name":"Upminster", "altid": "910GUPMNSP6", "tfl_intid": 736, "tfl_statid": 267, "lines":[ { "name": "District" }, { "name": "London Overground", "opened": 2015 } ], "labelX": 30 }, "geometry": { "type": "Point", "coordinates": [ 0.2530238, 51.5590133 ] } },
{ "type": "Feature", "properties": { "id":"940GZZLUUPY", "name":"Upney","tfl_intid": 738, "tfl_statid": 269, "lines":[ { "name": "District" } ], "labelX": 30 }, "geometry": { "type": "Point", "coordinates": [ 0.099727699999983, 51.5382666 ] } },
{ "type": "Feature", "properties": { "id":"940GZZLUUXB", "name":"Uxbridge","tfl_intid": 740, "tfl_statid": 271, "lines":[ { "name": "Metropolitan" }, { "name": "Piccadilly" } ], "labelX": -30 }, "geometry": { "type": "Point", "coordinates": [ -0.4784113, 51.5464342 ] } },
{ "type": "Feature", "properties": { "id":"940GZZLUVIC", "name":"Victoria","tfl_intid": 741, "tfl_statid": 273, "night": true, "lines":[ { "name": "District" }, { "name": "Circle" }, { "name": "Victoria" } ], "labelX": 30 }, "geometry": { "type": "Point", "coordinates": [ -0.143229499999988, 51.4963585 ] } },
{ "type": "Feature", "properties": { "id":"940GZZLUVXL", "name":"Vauxhall","tfl_intid": 777, "tfl_statid": 272, "night": true, "lines":[ { "name": "Victoria" } ], "labelX": 30 }, "geometry": { "type": "Point", "coordinates": [ -0.123079599999982, 51.484971699999988 ] } },
{ "type": "Feature", "properties": { "id":"940GZZLUWAF", "name":"Watford","tfl_intid": 748, "tfl_statid": 280, "lines":[ { "name": "Metropolitan", "closed": 2019 } ], "labelX": 30 }, "geometry": { "type": "Point", "coordinates": [ -0.4173727, 51.6573722 ] } },
{ "type": "Feature", "properties": { "id":"940GZZLUWBN", "name":"West Brompton","altid": "910GWBRMPTN", "tfl_intid": 755, "tfl_statid": 284, "lines":[ { "name": "District" }, { "name": "London Overground", "opened": 2007 } ], "labelX": 30 }, "geometry": { "type": "Point", "coordinates": [ -0.195487748612419, 51.487029949755978 ] } },
{ "type": "Feature", "properties": { "id":"940GZZLUWCY", "name":"White City","tfl_intid": 764, "tfl_statid": 295, "night": true, "lines":[ { "name": "Central" } ], "labelX": -30 }, "geometry": { "type": "Point", "coordinates": [ -0.2243858, 51.5120719 ] } },
{ "type": "Feature", "properties": { "id":"940GZZLUWFN", "name":"West Finchley","tfl_intid": 756, "tfl_statid": 285, "night": true, "lines":[ { "name": "Northern" } ], "labelX": 30 }, "geometry": { "type": "Point", "coordinates": [ -0.1883013, 51.609488399999989 ] } },
{ "type": "Feature", "properties": { "id":"940GZZLUWHM", "name":"West Ham", "altid": "940GZZDLWHM", "tfl_intid": 757, "tfl_statid": 286, "night": true, "lines":[ { "name": "District" }, { "name": "Hammersmith & City" }, { "name": "Jubilee" }, { "name": "DLR", "opened": 2011 } ], "labelX": 30 }, "geometry": { "type": "Point", "coordinates": [ 0.004399077509388, 51.528335852392495 ] } },
{ "type": "Feature", "properties": { "id":"940GZZLUWHP", "name":"West Hampstead","altid": "910GWHMDSTD", "tfl_intid": 758, "tfl_statid": 287, "night": true, "lines":[ { "name": "Jubilee" }, { "name": "London Overground", "opened": 2007 } ], "labelX": -1, "labelY": -35 }, "geometry": { "type": "Point", "coordinates": [ -0.1908, 51.546856599999977 ] } },
{ "type": "Feature", "properties": { "id":"940GZZLUWHW", "name":"West Harrow","tfl_intid": 759, "tfl_statid": 288, "lines":[ { "name": "Metropolitan" } ], "labelX": -30 }, "geometry": { "type": "Point", "coordinates": [ -0.353765200000011, 51.5793908 ] } },
{ "type": "Feature", "properties": { "id":"940GZZLUWIG", "name":"Willesden Green","tfl_intid": 765, "tfl_statid": 297, "night": true, "lines":[ { "name": "Jubilee" } ], "labelX": -25, "labelY": 20 }, "geometry": { "type": "Point", "coordinates": [ -0.221854899999985, 51.5493294 ] } },
{ "type": "Feature", "properties": { "id":"940GZZLUWIM", "name":"Wimbledon","tfl_intid": 767, "tfl_statid": 299, "lines":[ { "name": "District" }, { "name": "Tramlink" } ], "labelX": -30 }, "geometry": { "type": "Point", "coordinates": [ -0.20616421404153, 51.421635886394149 ] } },
{ "type": "Feature", "properties": { "id":"940GZZLUWIP", "name":"Wimbledon Park","tfl_intid": 768, "tfl_statid": 300, "lines":[ { "name": "District" } ], "labelX": -30 }, "geometry": { "type": "Point", "coordinates": [ -0.199632, 51.43445890000001 ] } },
{ "type": "Feature", "properties": { "id":"940GZZLUWJN", "name":"Willesden Junction", "altid": "910GWLSDJHL", "altid2": "910GWLSDNJL", "tfl_intid": 766, "tfl_statid": 298, "lines":[ { "name": "Bakerloo" }, { "name": "London Overground", "opened": 2007 } ], "labelX": -25, "labelY": 20 }, "geometry": { "type": "Point", "coordinates": [ -0.2431796, 51.5322487 ] } },
{ "type": "Feature", "properties": { "id":"940GZZLUWKA", "name":"Warwick Avenue","tfl_intid": 746, "tfl_statid": 278, "lines":[ { "name": "Bakerloo" } ], "labelX": -30 }, "geometry": { "type": "Point", "coordinates": [ -0.1840098, 51.5233004 ] } },
{ "type": "Feature", "properties": { "id":"940GZZLUWKN", "name":"West Kensington","tfl_intid": 760, "tfl_statid": 290, "lines":[ { "name": "District" } ], "labelX": 25, "labelY": 20 }, "geometry": { "type": "Point", "coordinates": [ -0.205979853369985, 51.490696665030924 ] } },
{ "type": "Feature", "properties": { "id":"940GZZLUWLA", "name":"Wood Lane","tfl_intid": 599, "tfl_statid": 305, "lines":[ { "name": "Circle", "opened": 2009 }, { "name": "Hammersmith & City", "opened": 2008 } ], "labelX": 30 }, "geometry": { "type": "Point", "coordinates": [ -0.223711699999976, 51.5100739 ] } },
{ "type": "Feature", "properties": { "id":"940GZZLUWLO", "name":"Waterloo","tfl_intid": 747, "tfl_statid": 279, "night": true, "lines":[ { "name": "Bakerloo" }, { "name": "Jubilee" }, { "name": "Northern" }, { "name": "Waterloo & City" } ], "labelX": 30 }, "geometry": { "type": "Point", "coordinates": [ -0.114356687094694, 51.503057094159352 ] } },
{ "type": "Feature", "properties": { "id":"940GZZLUWOF", "name":"Woodford","tfl_intid": 769, "tfl_statid": 302, "night": true, "lines":[ { "name": "Central" } ], "labelX": 30 }, "geometry": { "type": "Point", "coordinates": [ 0.0338595, 51.6066548 ] } },
{ "type": "Feature", "properties": { "id":"940GZZLUWOG", "name":"Wood Green","tfl_intid": 770, "tfl_statid": 301, "night": true, "lines":[ { "name": "Piccadilly" } ], "labelX": 30 }, "geometry": { "type": "Point", "coordinates": [ -0.109755300000021, 51.597418899999987 ] } },
{ "type": "Feature", "properties": { "id":"940GZZLUWOP", "name":"Woodside Park","tfl_intid": 771, "tfl_statid": 303, "night": true, "lines":[ { "name": "Northern" } ], "labelX": 30 }, "geometry": { "type": "Point", "coordinates": [ -0.18562, 51.617793299999988 ] } },
{ "type": "Feature", "properties": { "id":"910GWAPPING", "name":"Wapping","tfl_intid": 1085, "tfl_statid": 276, "lines":[ { "name": "London Overground", "opened": 2010 }, { "name": "East London", "closed": 2007 } ], "labelX": 30 }, "geometry": { "type": "Point", "coordinates": [ -0.055899699999989, 51.504322099999982 ] } },
{ "type": "Feature", "properties": { "id":"940GZZLUWPL", "name":"Whitechapel","altid": "910GWCHAPEL", "tfl_intid": 763, "tfl_statid": 296, "lines":[ { "name": "District" }, { "name": "Hammersmith & City" }, { "name": "London Overground", "opened": 2010 }, { "name": "Crossrail", "opened": 2018 }, { "name": "East London", "closed": 2007 } ], "labelX": 30 }, "geometry": { "type": "Point", "coordinates": [ -0.060154351431231, 51.519775786569191 ] } },
{ "type": "Feature", "properties": { "id":"940GZZLUWRP", "name":"West Ruislip","tfl_intid": 762, "tfl_statid": 291, "lines":[ { "name": "Central" } ], "labelX": -30 }, "geometry": { "type": "Point", "coordinates": [ -0.4376618, 51.5696319 ] } },
{ "type": "Feature", "properties": { "id":"940GZZLUWRR", "name":"Warren Street","tfl_intid": 745, "tfl_statid": 277, "night": true, "lines":[ { "name": "Northern" }, { "name": "Victoria" } ], "labelX": -25, "labelY": -20 }, "geometry": { "type": "Point", "coordinates": [ -0.138099521162558, 51.524653492079636 ] } },
{ "type": "Feature", "properties": { "id":"940GZZLUWSD", "name":"Wanstead","tfl_intid": 743, "tfl_statid": 275, "night": true, "lines":[ { "name": "Central" } ], "labelX": 30 }, "geometry": { "type": "Point", "coordinates": [ 0.028621, 51.5756659 ] } },
{ "type": "Feature", "properties": { "id":"940GZZLUWSM", "name":"Westminster","tfl_intid": 761, "tfl_statid": 294, "night": true, "lines":[ { "name": "District" }, { "name": "Circle" }, { "name": "Jubilee" } ], "labelX": 30 }, "geometry": { "type": "Point", "coordinates": [ -0.125956383925743, 51.500877528490641 ] } },
{ "type": "Feature", "properties": { "id":"940GZZLUWSP", "name":"Westbourne Park","tfl_intid": 754, "tfl_statid": 292, "lines":[ { "name": "Circle", "opened": 2009 }, { "name": "Hammersmith & City" } ], "labelX": -30 }, "geometry": { "type": "Point", "coordinates": [ -0.201508500000022, 51.5209487 ] } },
{ "type": "Feature", "properties": { "id":"940GZZLUWTA", "name":"West Acton","tfl_intid": 753, "tfl_statid": 283, "night": true, "lines":[ { "name": "Central" } ], "labelX": 25, "labelY": -20 }, "geometry": { "type": "Point", "coordinates": [ -0.2806051, 51.518196400000022 ] } },
{ "type": "Feature", "properties": { "id":"940GZZLUWWL", "name":"Walthamstow Central","tfl_intid": 742, "tfl_statid": 274, "night": true, "lines":[ { "name": "London Overground", "opened": 2015 }, { "name": "Victoria" } ], "labelX": 30 }, "geometry": { "type": "Point", "coordinates": [ -0.02001007118083, 51.582930335962274 ] } },
{ "type": "Feature", "properties": { "id":"940GZZLUWYC", "name":"Wembley Central","altid": "910GWMBYDC", "tfl_intid": 751, "tfl_statid": 281, "lines":[ { "name": "Bakerloo" }, { "name": "London Overground", "opened": 2007 } ], "labelX": 30 }, "geometry": { "type": "Point", "coordinates": [ -0.2958826, 51.551395099999972 ] } },
{ "type": "Feature", "properties": { "id":"940GZZLUWYP", "name":"Wembley Park","tfl_intid": 752, "tfl_statid": 282, "night": true, "lines":[ { "name": "Jubilee" }, { "name": "Metropolitan" } ], "labelX": 30 }, "geometry": { "type": "Point", "coordinates": [ -0.28004, 51.5637683 ] } },
{ "type": "Feature", "properties": { "id":"910GHOXTON", "name":"Hoxton","tfl_intid": 1023, "lines": [ { "name": "London Overground", "opened": 2010 } ], "labelX": 30 }, "geometry": { "type": "Point", "coordinates": [ -0.0756251, 51.53147 ] } },
{ "type": "Feature", "properties": { "id":"910GHAGGERS", "name":"Haggerston","tfl_intid": 1022, "lines": [ { "name": "London Overground", "opened": 2010 } ], "labelX": 30 }, "geometry": { "type": "Point", "coordinates": [ -0.0755378, 51.538929300000028 ] } },
{ "type": "Feature", "properties": { "id":"910GDALS", "name":"Dalston\nJunction","tfl_intid": 1443, "lines": [ { "name": "London Overground", "opened": 2010 } ], "labelX": 20, "labelY": 45 }, "geometry": { "type": "Point", "coordinates": [ -0.0749078, 51.5461354 ] } },
{ "type": "Feature", "properties": { "id":"910GBRBY", "name":"Brondesbury","tfl_intid": 1437, "lines": [ { "name": "London Overground", "opened": 2007 } ], "labelX": 30 }, "geometry": { "type": "Point", "coordinates": [ -0.2023235, 51.5451228 ] } },
{ "type": "Feature", "properties": { "id":"910GBRBYPK", "name":"Brondesbury Park","tfl_intid": 1438, "lines": [ { "name": "London Overground", "opened": 2007 } ], "labelX": -30 }, "geometry": { "type": "Point", "coordinates": [ -0.210148, 51.5406963 ] } },
{ "type": "Feature", "properties": { "id":"910GCLDNNRB", "name":"Caledonian Road\n& Barnsbury","tfl_intid": 1439, "lines": [ { "name": "London Overground", "opened": 2007 } ], "labelX": 1, "labelY": 50 }, "geometry": { "type": "Point", "coordinates": [ -0.1149882, 51.54360710000001 ] } },
{ "type": "Feature", "properties": { "id":"910GCMDNRD", "name":"Camden Road","tfl_intid": 1440, "lines": [ { "name": "London Overground", "opened": 2007 } ], "labelX": 25, "labelY": -20 }, "geometry": { "type": "Point", "coordinates": [ -0.1394643, 51.541949199999983 ] } },
{ "type": "Feature", "properties": { "id":"910GCNNB", "name":"Canonbury","tfl_intid": 1441, "lines": [ { "name": "London Overground", "opened": 2007 } ], "labelX": 1, "labelY": -35 }, "geometry": { "type": "Point", "coordinates": [ -0.092683300000021, 51.54868 ] } },
{ "type": "Feature", "properties": { "id":"910GCROUCHH", "name":"Crouch\nHill","tfl_intid": 7406, "lines": [ { "name": "London Overground", "opened": 2007 } ],  "labelX": 25, "labelY": 20 }, "geometry": { "type": "Point", "coordinates": [ -0.1171954, 51.5712785 ] } },
{ "type": "Feature", "properties": { "id":"910GCSEAH", "name":"Imperial Wharf","tfl_intid": 9586, "lines": [ { "name": "London Overground", "opened": 2009 } ], "labelX": 30 }, "geometry": { "type": "Point", "coordinates": [ -0.183135300000022, 51.475287199999983 ] } },
{ "type": "Feature", "properties": { "id":"910GDALSKLD", "name":"Dalston\nKingsland","tfl_intid": 1429, "lines": [ { "name": "London Overground", "opened": 2007 } ], "labelX": 1, "labelY": -50 }, "geometry": { "type": "Point", "coordinates": [ -0.075823500000016, 51.548172800000025 ] } },
{ "type": "Feature", "properties": { "id":"910GFNCHLYR", "name":"Finchley Road & Frognal","tfl_intid": 1445, "lines": [ { "name": "London Overground", "opened": 2007 } ], "labelX": -1, "labelY": -35 }, "geometry": { "type": "Point", "coordinates": [ -0.183953700000017, 51.54999 ] } },
{ "type": "Feature", "properties": { "id":"910GGOSPLOK", "name":"Gospel\nOak","tfl_intid": 1409, "lines": [ { "name": "London Overground", "opened": 2007 } ], "labelX": 1, "labelY": -45 }, "geometry": { "type": "Point", "coordinates": [ -0.152152900000018, 51.555677399999979 ] } },
{ "type": "Feature", "properties": { "id":"910GHACKNYC", "name":"Hackney Central","tfl_intid": 6977, "lines": [ { "name": "London Overground", "opened": 2007 } ], "labelX": 1, "labelY": 35 }, "geometry": { "type": "Point", "coordinates": [ -0.0573172, 51.547062799999985 ] } },
{ "type": "Feature", "properties": { "id":"910GHACKNYW", "name":"Hackney\nWick","tfl_intid": 6978, "lines": [ { "name": "London Overground", "opened": 2007 } ], "labelX": -1, "labelY": 45 }, "geometry": { "type": "Point", "coordinates": [ -0.024834399999984, 51.543413 ] } },
{ "type": "Feature", "properties": { "id":"910GHMPSTDH", "name":"Hampstead\nHeath","tfl_intid": 1413, "lines": [ { "name": "London Overground", "opened": 2007 } ], "labelX": 1, "labelY": -55 }, "geometry": { "type": "Point", "coordinates": [ -0.1653352, 51.555246 ] } },
{ "type": "Feature", "properties": { "id":"910GHOMRTON", "name":"Homerton","tfl_intid": 6979, "lines": [ { "name": "London Overground", "opened": 2007 } ], "labelX": 25, "labelY": -20}, "geometry": { "type": "Point", "coordinates": [ -0.0425037, 51.54707 ] } },
{ "type": "Feature", "properties": { "id":"910GHRGYGL", "name":"Harringay\nGreen Lanes","tfl_intid": 7401, "lines": [ { "name": "London Overground", "opened": 2007 } ], "labelX": -30, "labelY": -30 }, "geometry": { "type": "Point", "coordinates": [ -0.097821, 51.5772423 ] } },
{ "type": "Feature", "properties": { "id":"910GKENR", "name":"Kensal Rise","tfl_intid": 1448, "lines": [ { "name": "London Overground", "opened": 2007 } ], "labelX": -25, "labelY": -20 }, "geometry": { "type": "Point", "coordinates": [ -0.2202256, 51.5344081 ] } },
{ "type": "Feature", "properties": { "id":"910GKNTSHTW", "name":"Kentish Town West","tfl_intid": 1449, "lines": [ { "name": "London Overground", "opened": 2007 } ], "labelX": 30 }, "geometry": { "type": "Point", "coordinates": [ -0.1467504, 51.5470755 ] } },
{ "type": "Feature", "properties": { "id":"910GLEYTNMR", "name":"Leyton Midland Road","tfl_intid": 7402, "lines": [ { "name": "London Overground", "opened": 2007 } ], "labelX": -30 }, "geometry": { "type": "Point", "coordinates": [ -0.007268100000015, 51.5695322 ] } },
{ "type": "Feature", "properties": { "id":"910GLYTNSHR", "name":"Leytonstone High Road","tfl_intid": 7403, "lines": [ { "name": "London Overground", "opened": 2007 } ], "labelX": 30 }, "geometry": { "type": "Point", "coordinates": [ 0.00771220000001, 51.5639001 ] } },
{ "type": "Feature", "properties": { "id":"910GSACTON", "name":"South\nActon","tfl_intid": 1452, "lines": [ { "name": "London Overground", "opened": 2007 } ], "labelX": 30 }, "geometry": { "type": "Point", "coordinates": [ -0.2700966, 51.4995731 ] } },
{ "type": "Feature", "properties": { "id":"910GSTOTNHM", "name":"South Tottenham","tfl_intid": 7404, "lines": [ { "name": "London Overground", "opened": 2007 } ], "labelX": 25, "labelY": 20 }, "geometry": { "type": "Point", "coordinates": [ -0.071680800000012, 51.5805059 ] } },
{ "type": "Feature", "properties": { "id":"910GUPRHLWY", "name":"Upper\nHolloway","tfl_intid": 1524, "lines": [ { "name": "London Overground", "opened": 2007 } ], "labelX": 25, "labelY": 20 }, "geometry": { "type": "Point", "coordinates": [ -0.129485400000014, 51.5636254 ] } },
{ "type": "Feature", "properties": { "id":"910GWDGRNPK", "name":"Woodgrange Park","tfl_intid": 7467, "lines": [ { "name": "London Overground", "opened": 2007 } ], "labelX": 30 }, "geometry": { "type": "Point", "coordinates": [ 0.044549005962253, 51.549183513539674 ] } },
{ "type": "Feature", "properties": { "id":"910GWLTHQRD", "name":"Walthamstow Queens Road","tfl_intid": 7407, "lines": [ { "name": "London Overground", "opened": 2007 } ], "labelX": 30 }, "geometry": { "type": "Point", "coordinates": [ -0.023696100000016, 51.5815136 ] } },
{ "type": "Feature", "properties": { "id":"910GWNSTDPK", "name":"Wanstead Park","tfl_intid": 7408, "lines": [ { "name": "London Overground", "opened": 2007 } ], "labelX": 25, "labelY": -20 }, "geometry": { "type": "Point", "coordinates": [ 0.026333800000023, 51.5517 ] } },
{ "type": "Feature", "properties": { "id":"910GCLPHMJ1", "name":"Clapham Junction","tfl_intid": 5595, "lines": [ { "name": "London Overground", "opened": 2007 } ], "labelX": -30 }, "geometry": { "type": "Point", "coordinates": [ -0.171967399999986, 51.464800299999986 ] } },
{ "type": "Feature", "properties": { "id":"910GWCROYDN", "name":"West Croydon", "altid": "940GZZCRWCR", "tfl_intid": 8776, "lines": [ { "name": "London Overground", "opened": 2010 }, { "name": "Tramlink" } ], "labelX": 30 }, "geometry": { "type": "Point", "coordinates": [ -0.102299099999988, 51.378423899999987 ] } },
{ "type": "Feature", "properties": { "id":"910GNORWDJ", "name":"Norwood Junction","tfl_intid": 5376, "lines": [ { "name": "London Overground", "opened": 2010 } ], "labelX": -30 }, "geometry": { "type": "Point", "coordinates": [ -0.0746248, 51.3971534 ] } },
{ "type": "Feature", "properties": { "id":"910GANERLEY", "name":"Anerley","tfl_intid": 5397, "lines": [ { "name": "London Overground", "opened": 2010 } ], "labelX": 30 }, "geometry": { "type": "Point", "coordinates": [ -0.065798, 51.4122641 ] } },
{ "type": "Feature", "properties": { "id":"910GSYDENHM", "name":"Sydenham","tfl_intid": 5437, "lines": [ { "name": "London Overground", "opened": 2010 } ], "labelX": 30 }, "geometry": { "type": "Point", "coordinates": [ -0.054359200694866, 51.427277545054302 ] } },
{ "type": "Feature", "properties": { "id":"910GPENEW", "name":"Penge West","tfl_intid": 5378, "lines": [ { "name": "London Overground", "opened": 2010 } ], "labelX": 30 }, "geometry": { "type": "Point", "coordinates": [ -0.0606364, 51.4174776 ] } },
{ "type": "Feature", "properties": { "id":"910GHONROPK", "name":"Honor Oak Park","tfl_intid": 5418, "lines": [ { "name": "London Overground", "opened": 2010 } ], "labelX": 30 }, "geometry": { "type": "Point", "coordinates": [ -0.045361299999982, 51.450013200000029 ] } },
{ "type": "Feature", "properties": { "id":"910GFORESTH", "name":"Forest Hill","tfl_intid": 5362, "lines": [ { "name": "London Overground", "opened": 2010 } ], "labelX": 30 }, "geometry": { "type": "Point", "coordinates": [ -0.0528341, 51.4397749 ] } },
{ "type": "Feature", "properties": { "id":"910GCRYSTLP", "name":"Crystal Palace","tfl_intid": 5356, "lines": [ { "name": "London Overground", "opened": 2010 } ], "labelX": -30 }, "geometry": { "type": "Point", "coordinates": [ -0.0722046, 51.417945 ] } },
{ "type": "Feature", "properties": { "id":"910GBROCKLY", "name":"Brockley","tfl_intid": 5404, "lines": [ { "name": "London Overground", "opened": 2010 } ], "labelX": 30 }, "geometry": { "type": "Point", "coordinates": [ -0.0374688, 51.464638200000024 ] } },
{ "type": "Feature", "properties": { "id":"910GHEDSTNL", "name":"Headstone Lane","tfl_intid": 1434, "lines": [ { "name": "London Overground", "opened": 2007 } ], "labelX": 30 }, "geometry": { "type": "Point", "coordinates": [ -0.3566318, 51.6024175 ] } },
{ "type": "Feature", "properties": { "id":"910GHTCHEND", "name":"Hatch End","tfl_intid": 1398, "lines": [ { "name": "London Overground", "opened": 2007 } ], "labelX": 30 }, "geometry": { "type": "Point", "coordinates": [ -0.368613300000019, 51.609464 ] } },
{ "type": "Feature", "properties": { "id":"910GCRPNDPK", "name":"Carpenders Park","tfl_intid": 1442, "lines": [ { "name": "London Overground", "opened": 2007 } ], "labelX": 30 }, "geometry": { "type": "Point", "coordinates": [ -0.385674400000011, 51.628407 ] } },
{ "type": "Feature", "properties": { "id":"910GBUSHEY", "name":"Bushey","tfl_intid": 1395, "lines": [ { "name": "London Overground", "opened": 2007 } ], "labelX": 30 }, "geometry": { "type": "Point", "coordinates": [ -0.385197400000011, 51.645749299999984 ] } },
{ "type": "Feature", "properties": { "id":"910GWATFDHS", "name":"Watford High Street","tfl_intid": 1455, "lines": [ { "name": "London Overground", "opened": 2007 }, { "name": "Metropolitan", "opened": 2020 }   ], "labelX": 30 }, "geometry": { "type": "Point", "coordinates": [ -0.392159383517385, 51.652305465763376 ] } },
{ "type": "Feature", "properties": { "id":"910GWATFDJ", "name":"Watford Junction","tfl_intid": 1402, "lines": [ { "name": "London Overground", "opened": 2007 }, { "name": "Metropolitan", "opened": 2020 }   ], "labelX": 30 }, "geometry": { "type": "Point", "coordinates": [ -0.395965800000017, 51.66345860000002 ] } },
{ "type": "Feature", "properties": { "id":"910GKLBRNHR", "name":"Kilburn High Road","tfl_intid": 1415, "lines": [ { "name": "London Overground", "opened": 2007 } ], "labelX": 30 }, "geometry": { "type": "Point", "coordinates": [ -0.191495099999988, 51.5376658 ] } },